,Unnamed: 0,GMLID,LocalId,Namespace,Version,NatlStationCode,Name,Municipality,EUStationCode,ActivityBegin,ActivityEnd,Latitude,Longitude,SRSName,Altitude,AltitudeUnit,AreaClassification,BelongsTo
0,0,STA-FR01001,STA-FR01001,FR.LCSQA-INERIS.AQ,1,FR01001,Longlaville-Ecole,LONGLAVILLE,FR01001,1993-01-01T00:00:00+01:00,2014-11-04T00:00:00+01:00,49.535004,5.804447,urn:ogc:def:crs:EPSG::4326,265,http://dd.eionet.europa.eu/vocabulary/uom/length/m,http://dd.eionet.europa.eu/vocabulary/aq/areaclassification/suburban,FR.LCSQA-INERIS.AQ/NET-FR075A
1,1,STA-FR01004,STA-FR01004,FR.LCSQA-INERIS.AQ,1,FR01004,Distroff,DISTROFF,FR01004,1992-07-01T00:00:00+01:00,2013-06-29T00:00:00+01:00,49.332497,6.271664,urn:ogc:def:crs:EPSG::4326,223,http://dd.eionet.europa.eu/vocabulary/uom/length/m,http://dd.eionet.europa.eu/vocabulary/aq/areaclassification/rural-regional,FR.LCSQA-INERIS.AQ/NET-FR075A
2,2,STA-FR01005,STA-FR01005,FR.LCSQA-INERIS.AQ,2,FR01005,Hayange,HAYANGE,FR01005,1990-06-01T00:00:00+01:00,2021-01-18T00:00:00+01:00,49.324722,6.076108,urn:ogc:def:crs:EPSG::4326,187,http://dd.eionet.europa.eu/vocabulary/uom/length/m,http://dd.eionet.europa.eu/vocabulary/aq/areaclassification/suburban,FR.LCSQA-INERIS.AQ/NET-FR075A
3,3,STA-FR01006,STA-FR01006,FR.LCSQA-INERIS.AQ,1,FR01006,Florange,FLORANGE,FR01006,1988-07-01T00:00:00+01:00,2016-01-07T00:00:00+01:00,49.32083,6.14,urn:ogc:def:crs:EPSG::4326,158,http://dd.eionet.europa.eu/vocabulary/uom/length/m,http://dd.eionet.europa.eu/vocabulary/aq/areaclassification/suburban,FR.LCSQA-INERIS.AQ/NET-FR075A
4,4,STA-FR01009,STA-FR01009,FR.LCSQA-INERIS.AQ,2,FR01009,Gandrange,GANDRANGE,FR01009,1993-01-01T00:00:00+01:00,2018-04-13T00:00:00+01:00,49.271393,6.1325,urn:ogc:def:crs:EPSG::4326,180,http://dd.eionet.europa.eu/vocabulary/uom/length/m,http://dd.eionet.europa.eu/vocabulary/aq/areaclassification/suburban,FR.LCSQA-INERIS.AQ/NET-FR075A
5,5,STA-FR01010,STA-FR01010,FR.LCSQA-INERIS.AQ,1,FR01010,La Maxe,LA MAXE,FR01010,1990-06-01T00:00:00+01:00,2013-01-03T00:00:00+01:00,49.164165,6.186392,urn:ogc:def:crs:EPSG::4326,165,http://dd.eionet.europa.eu/vocabulary/uom/length/m,http://dd.eionet.europa.eu/vocabulary/aq/areaclassification/suburban,FR.LCSQA-INERIS.AQ/NET-FR075A
6,6,STA-FR01011,STA-FR01011,FR.LCSQA-INERIS.AQ,2,FR01011,Metz-Centre,METZ,FR01011,1989-01-01T00:00:00+01:00,,49.119442,6.180833,urn:ogc:def:crs:EPSG::4326,192,http://dd.eionet.europa.eu/vocabulary/uom/length/m,http://dd.eionet.europa.eu/vocabulary/aq/areaclassification/urban,FR.LCSQA-INERIS.AQ/NET-FR075A
7,7,STA-FR01012,STA-FR01012,FR.LCSQA-INERIS.AQ,2,FR01012,Metz-Borny,METZ,FR01012,1991-01-01T00:00:00+01:00,,49.110283,6.223336,urn:ogc:def:crs:EPSG::4326,204,http://dd.eionet.europa.eu/vocabulary/uom/length/m,http://dd.eionet.europa.eu/vocabulary/aq/areaclassification/urban,FR.LCSQA-INERIS.AQ/NET-FR075A
8,8,STA-FR01014,STA-FR01014,FR.LCSQA-INERIS.AQ,2,FR01014,Pont-à-Mousson,PONT-À-MOUSSON,FR01014,1990-09-01T00:00:00+01:00,,48.915,6.058336,urn:ogc:def:crs:EPSG::4326,179,http://dd.eionet.europa.eu/vocabulary/uom/length/m,http://dd.eionet.europa.eu/vocabulary/aq/areaclassification/urban,FR.LCSQA-INERIS.AQ/NET-FR075A
9,9,STA-FR01015,STA-FR01015,FR.LCSQA-INERIS.AQ,2,FR01015,Blénod-lès-PAM,BLÉNOD-LÈS-PONT-À-MOUSSON,FR01015,1990-07-01T00:00:00+01:00,2022-04-19T00:00:00+01:00,48.884724,6.051392,urn:ogc:def:crs:EPSG::4326,186,http://dd.eionet.europa.eu/vocabulary/uom/length/m,http://dd.eionet.europa.eu/vocabulary/aq/areaclassification/urban,FR.LCSQA-INERIS.AQ/NET-FR075A
10,10,STA-FR01016,STA-FR01016,FR.LCSQA-INERIS.AQ,2,FR01016,Atton,ATTON,FR01016,1990-07-01T00:00:00+01:00,,48.886387,6.093611,urn:ogc:def:crs:EPSG::4326,203,http://dd.eionet.europa.eu/vocabulary/uom/length/m,http://dd.eionet.europa.eu/vocabulary/aq/areaclassification/rural-nearcity,FR.LCSQA-INERIS.AQ/NET-FR075A
11,11,STA-FR01017,STA-FR01017,FR.LCSQA-INERIS.AQ,1,FR01017,Metz-Sablon,METZ,FR01017,1998-01-01T00:00:00+01:00,2013-06-04T00:00:00+01:00,49.09611,6.172778,urn:ogc:def:crs:EPSG::4326,185,http://dd.eionet.europa.eu/vocabulary/uom/length/m,http://dd.eionet.europa.eu/vocabulary/aq/areaclassification/urban,FR.LCSQA-INERIS.AQ/NET-FR075A
12,12,STA-FR01018,STA-FR01018,FR.LCSQA-INERIS.AQ,2,FR01018,Scy-Chazelles,SCY-CHAZELLES,FR01018,2000-09-28T00:00:00+01:00,,49.107502,6.122775,urn:ogc:def:crs:EPSG::4326,170,http://dd.eionet.europa.eu/vocabulary/uom/length/m,http://dd.eionet.europa.eu/vocabulary/aq/areaclassification/suburban,FR.LCSQA-INERIS.AQ/NET-FR075A
13,13,STA-FR01019,STA-FR01019,FR.LCSQA-INERIS.AQ,2,FR01019,Thionville-Piscine,THIONVILLE,FR01019,1998-01-28T00:00:00+01:00,2023-01-17T00:00:00+01:00,49.36861,6.160831,urn:ogc:def:crs:EPSG::4326,156,http://dd.eionet.europa.eu/vocabulary/uom/length/m,http://dd.eionet.europa.eu/vocabulary/aq/areaclassification/urban,FR.LCSQA-INERIS.AQ/NET-FR075A
14,14,STA-FR01020,STA-FR01020,FR.LCSQA-INERIS.AQ,2,FR01020,Thionville-Centre,THIONVILLE,FR01020,1999-07-08T00:00:00+01:00,,49.358337,6.156942,urn:ogc:def:crs:EPSG::4326,154,http://dd.eionet.europa.eu/vocabulary/uom/length/m,http://dd.eionet.europa.eu/vocabulary/aq/areaclassification/urban,FR.LCSQA-INERIS.AQ/NET-FR075A
15,15,STA-FR01021,STA-FR01021,FR.LCSQA-INERIS.AQ,2,FR01021,Thionville-Garche,THIONVILLE,FR01021,2000-12-29T00:00:00+01:00,,49.394444,6.201392,urn:ogc:def:crs:EPSG::4326,151,http://dd.eionet.europa.eu/vocabulary/uom/length/m,http://dd.eionet.europa.eu/vocabulary/aq/areaclassification/suburban,FR.LCSQA-INERIS.AQ/NET-FR075A
16,16,STA-FR01022,STA-FR01022,FR.LCSQA-INERIS.AQ,2,FR01022,St-Julien-lès-Metz,SAINT-JULIEN-LÈS-METZ,FR01022,2002-01-01T00:00:00+01:00,2020-03-24T00:00:00+01:00,49.131115,6.207225,urn:ogc:def:crs:EPSG::4326,227,http://dd.eionet.europa.eu/vocabulary/uom/length/m,http://dd.eionet.europa.eu/vocabulary/aq/areaclassification/urban,FR.LCSQA-INERIS.AQ/NET-FR075A
17,17,STA-FR01059,STA-FR01059,FR.LCSQA-INERIS.AQ,2,FR01059,HAYANGE-MARSPICH,HAYANGE,FR01059,2013-01-01T00:00:00+01:00,,49.3374,6.08207,urn:ogc:def:crs:EPSG::4326,197,http://dd.eionet.europa.eu/vocabulary/uom/length/m,http://dd.eionet.europa.eu/vocabulary/aq/areaclassification/suburban,FR.LCSQA-INERIS.AQ/NET-FR075A
18,18,STA-FR01060,STA-FR01060,FR.LCSQA-INERIS.AQ,2,FR01060,Malroy,MALROY,FR01060,2013-02-25T00:00:00+01:00,2021-01-15T00:00:00+01:00,49.16885,6.212669,urn:ogc:def:crs:EPSG::4326,173,http://dd.eionet.europa.eu/vocabulary/uom/length/m,http://dd.eionet.europa.eu/vocabulary/aq/areaclassification/rural-nearcity,FR.LCSQA-INERIS.AQ/NET-FR075A
19,19,STA-FR01061,STA-FR01061,FR.LCSQA-INERIS.AQ,2,FR01061,Florange_Bétange_HAP,FLORANGE,FR01061,2009-04-20T00:00:00+01:00,,49.3331,6.1147,urn:ogc:def:crs:EPSG::4326,167,http://dd.eionet.europa.eu/vocabulary/uom/length/m,http://dd.eionet.europa.eu/vocabulary/aq/areaclassification/suburban,FR.LCSQA-INERIS.AQ/NET-FR075A
20,20,STA-FR01063,STA-FR01063,FR.LCSQA-INERIS.AQ,2,FR01063,Serémange-Erzange,SERÉMANGE-ERZANGE,FR01063,2013-01-07T00:00:00+01:00,,49.321335,6.103931,urn:ogc:def:crs:EPSG::4326,170,http://dd.eionet.europa.eu/vocabulary/uom/length/m,http://dd.eionet.europa.eu/vocabulary/aq/areaclassification/suburban,FR.LCSQA-INERIS.AQ/NET-FR075A
21,21,STA-FR01064,STA-FR01064,FR.LCSQA-INERIS.AQ,2,FR01064,Metz- Pont Grilles,METZ,FR01064,2013-07-17T00:00:00+01:00,,49.12508,6.181219,urn:ogc:def:crs:EPSG::4326,164,http://dd.eionet.europa.eu/vocabulary/uom/length/m,http://dd.eionet.europa.eu/vocabulary/aq/areaclassification/urban,FR.LCSQA-INERIS.AQ/NET-FR075A
22,22,STA-FR01065,STA-FR01065,FR.LCSQA-INERIS.AQ,2,FR01065,Belleville sur Meuse,BELLEVILLE-SUR-MEUSE,FR01065,2014-01-10T00:00:00+01:00,,49.16778,5.387461,urn:ogc:def:crs:EPSG::4326,195,http://dd.eionet.europa.eu/vocabulary/uom/length/m,http://dd.eionet.europa.eu/vocabulary/aq/areaclassification/urban,FR.LCSQA-INERIS.AQ/NET-FR075A
23,23,STA-FR01066,STA-FR01066,FR.LCSQA-INERIS.AQ,2,FR01066,Fameck,FAMECK,FR01066,2013-01-07T00:00:00+01:00,2021-01-01T00:00:00+01:00,49.305088,6.101194,urn:ogc:def:crs:EPSG::4326,186,http://dd.eionet.europa.eu/vocabulary/uom/length/m,http://dd.eionet.europa.eu/vocabulary/aq/areaclassification/urban,FR.LCSQA-INERIS.AQ/NET-FR075A
24,24,STA-FR01092,STA-FR01092,FR.LCSQA-INERIS.AQ,1,FR01092,Farébersviller,FAREBERSVILLER,FR01092,2014-01-30T00:00:00+01:00,2014-12-02T00:00:00+01:00,49.117123,6.856736,urn:ogc:def:crs:EPSG::4326,289,http://dd.eionet.europa.eu/vocabulary/uom/length/m,http://dd.eionet.europa.eu/vocabulary/aq/areaclassification/rural,FR.LCSQA-INERIS.AQ/NET-FR075A
25,25,STA-FR02001,STA-FR02001,FR.LCSQA-INERIS.AQ,2,FR02001,Berre l'Etang,BERRE-L'ÉTANG,FR02001,1981-11-01T00:00:00+01:00,,43.486233,5.171939,urn:ogc:def:crs:EPSG::4326,6,http://dd.eionet.europa.eu/vocabulary/uom/length/m,http://dd.eionet.europa.eu/vocabulary/aq/areaclassification/suburban,FR.LCSQA-INERIS.AQ/NET-FR070A
26,26,STA-FR02003,STA-FR02003,FR.LCSQA-INERIS.AQ,2,FR02003,Chateauneuf,CHÂTEAUNEUF-LES-MARTIGUES,FR02003,1976-09-01T00:00:00+01:00,2020-06-03T00:00:00+01:00,43.386814,5.16006,urn:ogc:def:crs:EPSG::4326,29,http://dd.eionet.europa.eu/vocabulary/uom/length/m,http://dd.eionet.europa.eu/vocabulary/aq/areaclassification/suburban,FR.LCSQA-INERIS.AQ/NET-FR070A
27,27,STA-FR02004,STA-FR02004,FR.LCSQA-INERIS.AQ,2,FR02004,Martigues P. Central,MARTIGUES,FR02004,1976-10-01T00:00:00+01:00,,43.41666,5.042731,urn:ogc:def:crs:EPSG::4326,107,http://dd.eionet.europa.eu/vocabulary/uom/length/m,http://dd.eionet.europa.eu/vocabulary/aq/areaclassification/urban,FR.LCSQA-INERIS.AQ/NET-FR070A
28,28,STA-FR02005,STA-FR02005,FR.LCSQA-INERIS.AQ,2,FR02005,Martigues l'Ile,MARTIGUES,FR02005,1976-09-01T00:00:00+01:00,2020-03-07T00:00:00+01:00,43.405296,5.051636,urn:ogc:def:crs:EPSG::4326,2,http://dd.eionet.europa.eu/vocabulary/uom/length/m,http://dd.eionet.europa.eu/vocabulary/aq/areaclassification/urban,FR.LCSQA-INERIS.AQ/NET-FR070A
29,29,STA-FR02006,STA-FR02006,FR.LCSQA-INERIS.AQ,2,FR02006,Martigues Laurons,MARTIGUES,FR02006,1976-11-01T00:00:00+01:00,,43.358982,5.023388,urn:ogc:def:crs:EPSG::4326,5,http://dd.eionet.europa.eu/vocabulary/uom/length/m,http://dd.eionet.europa.eu/vocabulary/aq/areaclassification/suburban,FR.LCSQA-INERIS.AQ/NET-FR070A
30,30,STA-FR02007,STA-FR02007,FR.LCSQA-INERIS.AQ,2,FR02007,Martigues La Gatasse,MARTIGUES,FR02007,1976-10-01T00:00:00+01:00,,43.36069,5.058139,urn:ogc:def:crs:EPSG::4326,124,http://dd.eionet.europa.eu/vocabulary/uom/length/m,http://dd.eionet.europa.eu/vocabulary/aq/areaclassification/suburban,FR.LCSQA-INERIS.AQ/NET-FR070A
31,31,STA-FR02008,STA-FR02008,FR.LCSQA-INERIS.AQ,2,FR02008,Port de Bouc Leque,PORT-DE-BOUC,FR02008,1976-10-01T00:00:00+01:00,,43.40195,4.981919,urn:ogc:def:crs:EPSG::4326,3,http://dd.eionet.europa.eu/vocabulary/uom/length/m,http://dd.eionet.europa.eu/vocabulary/aq/areaclassification/urban,FR.LCSQA-INERIS.AQ/NET-FR070A
32,32,STA-FR02009,STA-FR02009,FR.LCSQA-INERIS.AQ,3,FR02009,Port Saint Louis,PORT-SAINT-LOUIS-DU-RHÔNE,FR02009,1977-01-01T00:00:00+01:00,,43.39378,4.801024,urn:ogc:def:crs:EPSG::4326,1,http://dd.eionet.europa.eu/vocabulary/uom/length/m,http://dd.eionet.europa.eu/vocabulary/aq/areaclassification/suburban,FR.LCSQA-INERIS.AQ/NET-FR070A
33,33,STA-FR02010,STA-FR02010,FR.LCSQA-INERIS.AQ,1,FR02010,Retour des Aires,ARLES,FR02010,1982-02-01T00:00:00+01:00,2013-12-14T00:00:00+01:00,43.500786,4.853818,urn:ogc:def:crs:EPSG::4326,5,http://dd.eionet.europa.eu/vocabulary/uom/length/m,http://dd.eionet.europa.eu/vocabulary/aq/areaclassification/rural,FR.LCSQA-INERIS.AQ/NET-FR070A
34,34,STA-FR02011,STA-FR02011,FR.LCSQA-INERIS.AQ,2,FR02011,Fos sur Mer,FOS-SUR-MER,FR02011,1976-09-01T00:00:00+01:00,,43.43786,4.945116,urn:ogc:def:crs:EPSG::4326,21,http://dd.eionet.europa.eu/vocabulary/uom/length/m,http://dd.eionet.europa.eu/vocabulary/aq/areaclassification/suburban,FR.LCSQA-INERIS.AQ/NET-FR070A
35,35,STA-FR02012,STA-FR02012,FR.LCSQA-INERIS.AQ,2,FR02012,Istres,ISTRES,FR02012,1976-09-01T00:00:00+01:00,,43.50615,4.982898,urn:ogc:def:crs:EPSG::4326,20,http://dd.eionet.europa.eu/vocabulary/uom/length/m,http://dd.eionet.europa.eu/vocabulary/aq/areaclassification/urban,FR.LCSQA-INERIS.AQ/NET-FR070A
36,36,STA-FR02013,STA-FR02013,FR.LCSQA-INERIS.AQ,2,FR02013,Fos Les Carabins,FOS-SUR-MER,FR02013,1997-06-09T00:00:00+01:00,,43.458927,4.934572,urn:ogc:def:crs:EPSG::4326,4,http://dd.eionet.europa.eu/vocabulary/uom/length/m,http://dd.eionet.europa.eu/vocabulary/aq/areaclassification/suburban,FR.LCSQA-INERIS.AQ/NET-FR070A
37,37,STA-FR02014,STA-FR02014,FR.LCSQA-INERIS.AQ,1,FR02014,Port de Bouc Castil.,PORT-DE-BOUC,FR02014,1976-09-01T00:00:00+01:00,2015-01-23T00:00:00+01:00,43.42533,4.996785,urn:ogc:def:crs:EPSG::4326,69,http://dd.eionet.europa.eu/vocabulary/uom/length/m,http://dd.eionet.europa.eu/vocabulary/aq/areaclassification/suburban,FR.LCSQA-INERIS.AQ/NET-FR070A
38,38,STA-FR02016,STA-FR02016,FR.LCSQA-INERIS.AQ,1,FR02016,Salon de Provence,SALON-DE-PROVENCE,FR02016,1979-01-01T00:00:00+01:00,2013-11-22T00:00:00+01:00,43.63864,5.091892,urn:ogc:def:crs:EPSG::4326,73,http://dd.eionet.europa.eu/vocabulary/uom/length/m,http://dd.eionet.europa.eu/vocabulary/aq/areaclassification/urban,FR.LCSQA-INERIS.AQ/NET-FR070A
39,39,STA-FR02018,STA-FR02018,FR.LCSQA-INERIS.AQ,2,FR02018,La Fare les Oliviers,LA FARE-LES-OLIVIERS,FR02018,1979-01-01T00:00:00+01:00,2017-01-27T00:00:00+01:00,43.548313,5.183108,urn:ogc:def:crs:EPSG::4326,41,http://dd.eionet.europa.eu/vocabulary/uom/length/m,http://dd.eionet.europa.eu/vocabulary/aq/areaclassification/suburban,FR.LCSQA-INERIS.AQ/NET-FR070A
40,40,STA-FR02019,STA-FR02019,FR.LCSQA-INERIS.AQ,2,FR02019,Vitrolles,VITROLLES,FR02019,1982-04-01T00:00:00+01:00,2020-02-19T00:00:00+01:00,43.44603,5.254136,urn:ogc:def:crs:EPSG::4326,86,http://dd.eionet.europa.eu/vocabulary/uom/length/m,http://dd.eionet.europa.eu/vocabulary/aq/areaclassification/urban,FR.LCSQA-INERIS.AQ/NET-FR070A
41,41,STA-FR02020,STA-FR02020,FR.LCSQA-INERIS.AQ,2,FR02020,Rognac les Brets,ROGNAC,FR02020,1982-02-01T00:00:00+01:00,,43.510803,5.220046,urn:ogc:def:crs:EPSG::4326,48,http://dd.eionet.europa.eu/vocabulary/uom/length/m,http://dd.eionet.europa.eu/vocabulary/aq/areaclassification/suburban,FR.LCSQA-INERIS.AQ/NET-FR070A
42,42,STA-FR02021,STA-FR02021,FR.LCSQA-INERIS.AQ,2,FR02021,Sausset les Pins,SAUSSET-LES-PINS,FR02021,1989-02-01T00:00:00+01:00,,43.331245,5.117696,urn:ogc:def:crs:EPSG::4326,11,http://dd.eionet.europa.eu/vocabulary/uom/length/m,http://dd.eionet.europa.eu/vocabulary/aq/areaclassification/suburban,FR.LCSQA-INERIS.AQ/NET-FR070A
43,43,STA-FR02022,STA-FR02022,FR.LCSQA-INERIS.AQ,3,FR02022,Arles,ARLES,FR02022,1986-05-01T00:00:00+01:00,,43.675114,4.62921,urn:ogc:def:crs:EPSG::4326,10,http://dd.eionet.europa.eu/vocabulary/uom/length/m,http://dd.eionet.europa.eu/vocabulary/aq/areaclassification/urban,FR.LCSQA-INERIS.AQ/NET-FR070A
44,44,STA-FR02023,STA-FR02023,FR.LCSQA-INERIS.AQ,1,FR02023,St Remy de Provence,SAINT-REMY-DE-PROVENCE,FR02023,1999-05-12T00:00:00+01:00,2016-01-26T00:00:00+01:00,43.788376,4.83465,urn:ogc:def:crs:EPSG::4326,57,http://dd.eionet.europa.eu/vocabulary/uom/length/m,http://dd.eionet.europa.eu/vocabulary/aq/areaclassification/suburban,FR.LCSQA-INERIS.AQ/NET-FR070A
45,45,STA-FR02024,STA-FR02024,FR.LCSQA-INERIS.AQ,2,FR02024,Ste Maries de la Mer,SAINTES-MARIES-DE-LA-MER,FR02024,1999-06-01T00:00:00+01:00,2020-05-29T00:00:00+01:00,43.457077,4.428002,urn:ogc:def:crs:EPSG::4326,1,http://dd.eionet.europa.eu/vocabulary/uom/length/m,http://dd.eionet.europa.eu/vocabulary/aq/areaclassification/suburban,FR.LCSQA-INERIS.AQ/NET-FR070A
46,46,STA-FR02026,STA-FR02026,FR.LCSQA-INERIS.AQ,2,FR02026,Miramas Centre Ville,MIRAMAS,FR02026,2004-04-05T00:00:00+01:00,2020-01-23T00:00:00+01:00,43.584694,5.006452,urn:ogc:def:crs:EPSG::4326,50,http://dd.eionet.europa.eu/vocabulary/uom/length/m,http://dd.eionet.europa.eu/vocabulary/aq/areaclassification/urban,FR.LCSQA-INERIS.AQ/NET-FR070A
47,47,STA-FR02028,STA-FR02028,FR.LCSQA-INERIS.AQ,2,FR02028,Martigues Lavera,MARTIGUES,FR02028,2004-09-30T00:00:00+01:00,,43.386562,5.026868,urn:ogc:def:crs:EPSG::4326,49,http://dd.eionet.europa.eu/vocabulary/uom/length/m,http://dd.eionet.europa.eu/vocabulary/aq/areaclassification/suburban,FR.LCSQA-INERIS.AQ/NET-FR070A
48,48,STA-FR02029,STA-FR02029,FR.LCSQA-INERIS.AQ,2,FR02029,Chateauneuf La Mede,CHÂTEAUNEUF-LES-MARTIGUES,FR02029,2000-04-04T00:00:00+01:00,,43.399548,5.113214,urn:ogc:def:crs:EPSG::4326,10,http://dd.eionet.europa.eu/vocabulary/uom/length/m,http://dd.eionet.europa.eu/vocabulary/aq/areaclassification/suburban,FR.LCSQA-INERIS.AQ/NET-FR070A
49,49,STA-FR02030,STA-FR02030,FR.LCSQA-INERIS.AQ,1,FR02030,Berre Port,BERRE-L'ETANG,FR02030,1999-03-08T00:00:00+01:00,2015-12-08T00:00:00+01:00,43.47201,5.167704,urn:ogc:def:crs:EPSG::4326,1,http://dd.eionet.europa.eu/vocabulary/uom/length/m,http://dd.eionet.europa.eu/vocabulary/aq/areaclassification/suburban,FR.LCSQA-INERIS.AQ/NET-FR070A
50,50,STA-FR02031,STA-FR02031,FR.LCSQA-INERIS.AQ,2,FR02031,Marignane Ville,MARIGNANE,FR02031,1997-05-27T00:00:00+01:00,2017-08-04T00:00:00+01:00,43.415688,5.216875,urn:ogc:def:crs:EPSG::4326,10,http://dd.eionet.europa.eu/vocabulary/uom/length/m,http://dd.eionet.europa.eu/vocabulary/aq/areaclassification/urban,FR.LCSQA-INERIS.AQ/NET-FR070A
51,51,STA-FR02033,STA-FR02033,FR.LCSQA-INERIS.AQ,2,FR02033,Martigues  Couronne,MARTIGUES,FR02033,1976-10-01T00:00:00+01:00,2020-02-20T00:00:00+01:00,43.339893,5.058827,urn:ogc:def:crs:EPSG::4326,47,http://dd.eionet.europa.eu/vocabulary/uom/length/m,http://dd.eionet.europa.eu/vocabulary/aq/areaclassification/suburban,FR.LCSQA-INERIS.AQ/NET-FR070A
52,52,STA-FR02034,STA-FR02034,FR.LCSQA-INERIS.AQ,1,FR02034,Martigues Ventrons,MARTIGUES,FR02034,1984-02-01T00:00:00+01:00,2016-02-22T00:00:00+01:00,43.37571,5.064025,urn:ogc:def:crs:EPSG::4326,71,http://dd.eionet.europa.eu/vocabulary/uom/length/m,http://dd.eionet.europa.eu/vocabulary/aq/areaclassification/suburban,FR.LCSQA-INERIS.AQ/NET-FR070A
53,53,STA-FR02035,STA-FR02035,FR.LCSQA-INERIS.AQ,2,FR02035,Carry le Rouet,CARRY-LE-ROUET,FR02035,1993-02-22T00:00:00+01:00,2018-01-05T00:00:00+01:00,43.330868,5.151234,urn:ogc:def:crs:EPSG::4326,7,http://dd.eionet.europa.eu/vocabulary/uom/length/m,http://dd.eionet.europa.eu/vocabulary/aq/areaclassification/suburban,FR.LCSQA-INERIS.AQ/NET-FR070A
54,54,STA-FR02036,STA-FR02036,FR.LCSQA-INERIS.AQ,1,FR02036,Martigues Pati,MARTIGUES,FR02036,1984-02-01T00:00:00+01:00,2015-01-07T00:00:00+01:00,43.398804,5.072803,urn:ogc:def:crs:EPSG::4326,12,http://dd.eionet.europa.eu/vocabulary/uom/length/m,http://dd.eionet.europa.eu/vocabulary/aq/areaclassification/suburban,FR.LCSQA-INERIS.AQ/NET-FR070A
55,55,STA-FR02037,STA-FR02037,FR.LCSQA-INERIS.AQ,2,FR02037,Port de Bouc EDF,PORT-DE-BOUC,FR02037,1984-01-01T00:00:00+01:00,2023-01-14T00:00:00+01:00,43.413944,4.985996,urn:ogc:def:crs:EPSG::4326,23,http://dd.eionet.europa.eu/vocabulary/uom/length/m,http://dd.eionet.europa.eu/vocabulary/aq/areaclassification/suburban,FR.LCSQA-INERIS.AQ/NET-FR070A
56,56,STA-FR02041,STA-FR02041,FR.LCSQA-INERIS.AQ,2,FR02041,SALON,SALON-DE-PROVENCE,FR02041,2013-01-01T00:00:00+01:00,,43.639004,5.101097,urn:ogc:def:crs:EPSG::4326,82,http://dd.eionet.europa.eu/vocabulary/uom/length/m,http://dd.eionet.europa.eu/vocabulary/aq/areaclassification/urban,FR.LCSQA-INERIS.AQ/NET-FR070A
57,57,STA-FR02043,STA-FR02043,FR.LCSQA-INERIS.AQ,1,FR02043,Marignane,MARIGNANE,FR02043,2018-02-02T00:00:00+01:00,,43.41653,5.222281,urn:ogc:def:crs:EPSG::4326,15,http://dd.eionet.europa.eu/vocabulary/uom/length/m,http://dd.eionet.europa.eu/vocabulary/aq/areaclassification/urban,FR.LCSQA-INERIS.AQ/NET-FR070A
58,58,STA-FR03002,STA-FR03002,FR.LCSQA-INERIS.AQ,1,FR03002,MARSEILLE TIMONE,MARSEILLE 5E ARRONDISSEMENT,FR03002,1981-12-16T00:00:00+01:00,2013-08-03T00:00:00+01:00,43.29005,5.400252,urn:ogc:def:crs:EPSG::4326,27,http://dd.eionet.europa.eu/vocabulary/uom/length/m,http://dd.eionet.europa.eu/vocabulary/aq/areaclassification/urban,FR.LCSQA-INERIS.AQ/NET-FR070A
59,59,STA-FR03004,STA-FR03004,FR.LCSQA-INERIS.AQ,2,FR03004,MARSEILLE PLOMBIERES,MARSEILLE 14E ARRONDISSEMENT,FR03004,1982-01-15T00:00:00+01:00,2017-12-09T00:00:00+01:00,43.31543,5.386739,urn:ogc:def:crs:EPSG::4326,21,http://dd.eionet.europa.eu/vocabulary/uom/length/m,http://dd.eionet.europa.eu/vocabulary/aq/areaclassification/urban,FR.LCSQA-INERIS.AQ/NET-FR070A
60,60,STA-FR03006,STA-FR03006,FR.LCSQA-INERIS.AQ,2,FR03006,MARSEILLE RABATAU,MARSEILLE 8E ARRONDISSEMENT,FR03006,1981-12-16T00:00:00+01:00,,43.27645,5.39736,urn:ogc:def:crs:EPSG::4326,17,http://dd.eionet.europa.eu/vocabulary/uom/length/m,http://dd.eionet.europa.eu/vocabulary/aq/areaclassification/urban,FR.LCSQA-INERIS.AQ/NET-FR070A
61,61,STA-FR03014,STA-FR03014,FR.LCSQA-INERIS.AQ,2,FR03014,MARSEILLE ST LOUIS,MARSEILLE 15E ARRONDISSEMENT,FR03014,1981-11-23T00:00:00+01:00,,43.34805,5.360119,urn:ogc:def:crs:EPSG::4326,59,http://dd.eionet.europa.eu/vocabulary/uom/length/m,http://dd.eionet.europa.eu/vocabulary/aq/areaclassification/urban,FR.LCSQA-INERIS.AQ/NET-FR070A
62,62,STA-FR03021,STA-FR03021,FR.LCSQA-INERIS.AQ,2,FR03021,AIX ROY RENE,AIX-EN-PROVENCE,FR03021,1982-04-20T00:00:00+01:00,,43.524075,5.448164,urn:ogc:def:crs:EPSG::4326,182,http://dd.eionet.europa.eu/vocabulary/uom/length/m,http://dd.eionet.europa.eu/vocabulary/aq/areaclassification/urban,FR.LCSQA-INERIS.AQ/NET-FR070A
63,63,STA-FR03027,STA-FR03027,FR.LCSQA-INERIS.AQ,3,FR03027,PLAN AUPS/STE  BAUME,PLAN-D'AUPS-SAINTE-BAUME,FR03027,1983-05-03T00:00:00+01:00,,43.3352,5.727365,urn:ogc:def:crs:EPSG::4326,682,http://dd.eionet.europa.eu/vocabulary/uom/length/m,http://dd.eionet.europa.eu/vocabulary/aq/areaclassification/rural-nearcity,FR.LCSQA-INERIS.AQ/NET-FR070A
64,64,STA-FR03029,STA-FR03029,FR.LCSQA-INERIS.AQ,2,FR03029,AIX CENTRE ECOLE ART,AIX-EN-PROVENCE,FR03029,1997-05-09T00:00:00+01:00,,43.530285,5.440912,urn:ogc:def:crs:EPSG::4326,192,http://dd.eionet.europa.eu/vocabulary/uom/length/m,http://dd.eionet.europa.eu/vocabulary/aq/areaclassification/urban,FR.LCSQA-INERIS.AQ/NET-FR070A
65,65,STA-FR03030,STA-FR03030,FR.LCSQA-INERIS.AQ,2,FR03030,GARDANNE,GARDANNE,FR03030,1985-11-05T00:00:00+01:00,,43.453583,5.466672,urn:ogc:def:crs:EPSG::4326,203,http://dd.eionet.europa.eu/vocabulary/uom/length/m,http://dd.eionet.europa.eu/vocabulary/aq/areaclassification/suburban,FR.LCSQA-INERIS.AQ/NET-FR070A
66,66,STA-FR03031,STA-FR03031,FR.LCSQA-INERIS.AQ,1,FR03031,CADARACHE/DURANCE,SAINT-PAUL-LES-DURANCE,FR03031,1993-11-23T00:00:00+01:00,2014-02-07T00:00:00+01:00,43.708584,5.758152,urn:ogc:def:crs:EPSG::4326,285,http://dd.eionet.europa.eu/vocabulary/uom/length/m,http://dd.eionet.europa.eu/vocabulary/aq/areaclassification/rural,FR.LCSQA-INERIS.AQ/NET-FR070A
67,67,STA-FR03032,STA-FR03032,FR.LCSQA-INERIS.AQ,2,FR03032,AUBAGNE LES PASSONS,AUBAGNE,FR03032,2010-09-06T00:00:00+01:00,,43.293137,5.574184,urn:ogc:def:crs:EPSG::4326,132,http://dd.eionet.europa.eu/vocabulary/uom/length/m,http://dd.eionet.europa.eu/vocabulary/aq/areaclassification/urban,FR.LCSQA-INERIS.AQ/NET-FR070A
68,68,STA-FR03037,STA-FR03037,FR.LCSQA-INERIS.AQ,2,FR03037,VALLEE HUVEAUNE,LA PENNE-SUR-HUVEAUNE,FR03037,1995-07-01T00:00:00+01:00,,43.28334,5.511384,urn:ogc:def:crs:EPSG::4326,74,http://dd.eionet.europa.eu/vocabulary/uom/length/m,http://dd.eionet.europa.eu/vocabulary/aq/areaclassification/suburban,FR.LCSQA-INERIS.AQ/NET-FR070A
69,69,STA-FR03043,STA-FR03043,FR.LCSQA-INERIS.AQ,2,FR03043,MARSEILLE 5 AVENUES,MARSEILLE 4E ARRONDISSEMENT,FR03043,1995-06-06T00:00:00+01:00,,43.305286,5.394716,urn:ogc:def:crs:EPSG::4326,73,http://dd.eionet.europa.eu/vocabulary/uom/length/m,http://dd.eionet.europa.eu/vocabulary/aq/areaclassification/urban,FR.LCSQA-INERIS.AQ/NET-FR070A
70,70,STA-FR03045,STA-FR03045,FR.LCSQA-INERIS.AQ,1,FR03045,MARSEILLE MARGUERITE,MARSEILLE 9E ARRONDISSEMENT,FR03045,1995-07-04T00:00:00+01:00,2013-10-10T00:00:00+01:00,43.26022,5.411003,urn:ogc:def:crs:EPSG::4326,40,http://dd.eionet.europa.eu/vocabulary/uom/length/m,http://dd.eionet.europa.eu/vocabulary/aq/areaclassification/urban,FR.LCSQA-INERIS.AQ/NET-FR070A
71,71,STA-FR03046,STA-FR03046,FR.LCSQA-INERIS.AQ,1,FR03046,LA CIOTAT,LA CIOTAT,FR03046,1998-01-08T00:00:00+01:00,2013-10-10T00:00:00+01:00,43.18659,5.607593,urn:ogc:def:crs:EPSG::4326,19,http://dd.eionet.europa.eu/vocabulary/uom/length/m,http://dd.eionet.europa.eu/vocabulary/aq/areaclassification/suburban,FR.LCSQA-INERIS.AQ/NET-FR070A
72,72,STA-FR03047,STA-FR03047,FR.LCSQA-INERIS.AQ,1,FR03047,MARSEILLE THIERS NOA,MARSEILLE 1ER ARRONDISSEMENT,FR03047,1998-10-01T00:00:00+01:00,2014-01-10T00:00:00+01:00,43.296967,5.383156,urn:ogc:def:crs:EPSG::4326,21,http://dd.eionet.europa.eu/vocabulary/uom/length/m,http://dd.eionet.europa.eu/vocabulary/aq/areaclassification/urban,FR.LCSQA-INERIS.AQ/NET-FR070A
73,73,STA-FR03048,STA-FR03048,FR.LCSQA-INERIS.AQ,2,FR03048,AIX PLATANES,AIX-EN-PROVENCE,FR03048,2000-06-02T00:00:00+01:00,,43.55578,5.461232,urn:ogc:def:crs:EPSG::4326,296,http://dd.eionet.europa.eu/vocabulary/uom/length/m,http://dd.eionet.europa.eu/vocabulary/aq/areaclassification/suburban,FR.LCSQA-INERIS.AQ/NET-FR070A
74,74,STA-FR03060,STA-FR03060,FR.LCSQA-INERIS.AQ,2,FR03060,LA SEYNE GENOUD,LA SEYNE-SUR-MER,FR03060,2009-08-01T00:00:00+01:00,,43.101566,5.875404,urn:ogc:def:crs:EPSG::4326,8,http://dd.eionet.europa.eu/vocabulary/uom/length/m,http://dd.eionet.europa.eu/vocabulary/aq/areaclassification/urban,FR.LCSQA-INERIS.AQ/NET-FR070A
75,75,STA-FR03062,STA-FR03062,FR.LCSQA-INERIS.AQ,1,FR03062,TOULON CHALUCET,TOULON,FR03062,1997-06-23T00:00:00+01:00,2014-08-29T00:00:00+01:00,43.127476,5.927086,urn:ogc:def:crs:EPSG::4326,12,http://dd.eionet.europa.eu/vocabulary/uom/length/m,http://dd.eionet.europa.eu/vocabulary/aq/areaclassification/urban,FR.LCSQA-INERIS.AQ/NET-FR070A
76,76,STA-FR03063,STA-FR03063,FR.LCSQA-INERIS.AQ,1,FR03063,TOULON ARSENAL,TOULON,FR03063,1998-03-20T00:00:00+01:00,2015-12-17T00:00:00+01:00,43.124584,5.924399,urn:ogc:def:crs:EPSG::4326,2,http://dd.eionet.europa.eu/vocabulary/uom/length/m,http://dd.eionet.europa.eu/vocabulary/aq/areaclassification/urban,FR.LCSQA-INERIS.AQ/NET-FR070A
77,77,STA-FR03064,STA-FR03064,FR.LCSQA-INERIS.AQ,2,FR03064,LA VALETTE/LA GARDE,LA VALETTE-DU-VAR,FR03064,1999-07-17T00:00:00+01:00,,43.135902,6.011513,urn:ogc:def:crs:EPSG::4326,64,http://dd.eionet.europa.eu/vocabulary/uom/length/m,http://dd.eionet.europa.eu/vocabulary/aq/areaclassification/suburban,FR.LCSQA-INERIS.AQ/NET-FR070A
78,78,STA-FR03067,STA-FR03067,FR.LCSQA-INERIS.AQ,3,FR03067,BRIGNOLES,BRIGNOLES,FR03067,2002-06-24T00:00:00+01:00,,43.39873,6.075611,urn:ogc:def:crs:EPSG::4326,269,http://dd.eionet.europa.eu/vocabulary/uom/length/m,http://dd.eionet.europa.eu/vocabulary/aq/areaclassification/suburban,FR.LCSQA-INERIS.AQ/NET-FR070A
79,79,STA-FR03068,STA-FR03068,FR.LCSQA-INERIS.AQ,2,FR03068,TOULON FOCH,TOULON,FR03068,2002-02-01T00:00:00+01:00,,43.12682,5.921605,urn:ogc:def:crs:EPSG::4326,6,http://dd.eionet.europa.eu/vocabulary/uom/length/m,http://dd.eionet.europa.eu/vocabulary/aq/areaclassification/urban,FR.LCSQA-INERIS.AQ/NET-FR070A
80,80,STA-FR03069,STA-FR03069,FR.LCSQA-INERIS.AQ,2,FR03069,HYERES,HYÈRES,FR03069,2004-05-27T00:00:00+01:00,2023-01-16T00:00:00+01:00,43.119736,6.131319,urn:ogc:def:crs:EPSG::4326,32,http://dd.eionet.europa.eu/vocabulary/uom/length/m,http://dd.eionet.europa.eu/vocabulary/aq/areaclassification/urban,FR.LCSQA-INERIS.AQ/NET-FR070A
81,81,STA-FR03070,STA-FR03070,FR.LCSQA-INERIS.AQ,3,FR03070,ESTEREL,FRÉJUS,FR03070,2015-10-15T00:00:00+01:00,,43.437874,6.76839,urn:ogc:def:crs:EPSG::4326,5,http://dd.eionet.europa.eu/vocabulary/uom/length/m,http://dd.eionet.europa.eu/vocabulary/aq/areaclassification/suburban,FR.LCSQA-INERIS.AQ/NET-FR070A
82,82,STA-FR03071,STA-FR03071,FR.LCSQA-INERIS.AQ,2,FR03071,TOULON CLARET,TOULON,FR03071,2016-11-26T00:00:00+01:00,,43.13111,5.924184,urn:ogc:def:crs:EPSG::4326,26,http://dd.eionet.europa.eu/vocabulary/uom/length/m,http://dd.eionet.europa.eu/vocabulary/aq/areaclassification/urban,FR.LCSQA-INERIS.AQ/NET-FR070A
83,83,STA-FR03080,STA-FR03080,FR.LCSQA-INERIS.AQ,2,FR03080,AVIGNON   MAIRIE,AVIGNON,FR03080,1998-07-16T00:00:00+01:00,,43.949673,4.804341,urn:ogc:def:crs:EPSG::4326,19,http://dd.eionet.europa.eu/vocabulary/uom/length/m,http://dd.eionet.europa.eu/vocabulary/aq/areaclassification/urban,FR.LCSQA-INERIS.AQ/NET-FR070A
84,84,STA-FR03084,STA-FR03084,FR.LCSQA-INERIS.AQ,2,FR03084,LE PONTET,LE PONTET,FR03084,1998-08-25T00:00:00+01:00,,43.960144,4.856731,urn:ogc:def:crs:EPSG::4326,21,http://dd.eionet.europa.eu/vocabulary/uom/length/m,http://dd.eionet.europa.eu/vocabulary/aq/areaclassification/suburban,FR.LCSQA-INERIS.AQ/NET-FR070A
85,85,STA-FR03086,STA-FR03086,FR.LCSQA-INERIS.AQ,3,FR03086,APT,APT,FR03086,2002-04-18T00:00:00+01:00,,43.88012,5.362038,urn:ogc:def:crs:EPSG::4326,202,http://dd.eionet.europa.eu/vocabulary/uom/length/m,http://dd.eionet.europa.eu/vocabulary/aq/areaclassification/suburban,FR.LCSQA-INERIS.AQ/NET-FR070A
86,86,STA-FR03087,STA-FR03087,FR.LCSQA-INERIS.AQ,4,FR03087,Avignon Semard,AVIGNON,FR03087,2009-11-02T00:00:00+01:00,2023-02-07T00:00:00+01:00,43.93706,4.824909,urn:ogc:def:crs:EPSG::4326,19,http://dd.eionet.europa.eu/vocabulary/uom/length/m,http://dd.eionet.europa.eu/vocabulary/aq/areaclassification/urban,FR.LCSQA-INERIS.AQ/NET-FR070A
87,87,STA-FR03088,STA-FR03088,FR.LCSQA-INERIS.AQ,2,FR03088,CARPENTRAS,CARPENTRAS,FR03088,2012-03-16T00:00:00+01:00,,44.06035,5.067413,urn:ogc:def:crs:EPSG::4326,115,http://dd.eionet.europa.eu/vocabulary/uom/length/m,http://dd.eionet.europa.eu/vocabulary/aq/areaclassification/suburban,FR.LCSQA-INERIS.AQ/NET-FR070A
88,88,STA-FR03091,STA-FR03091,FR.LCSQA-INERIS.AQ,1,FR03091,Avignon Rocade De Gaulle,AVIGNON,FR03091,2022-09-26T00:00:00+01:00,,43.9314,4.826875,urn:ogc:def:crs:EPSG::4326,21,http://dd.eionet.europa.eu/vocabulary/uom/length/m,http://dd.eionet.europa.eu/vocabulary/aq/areaclassification/urban,FR.LCSQA-INERIS.AQ/NET-FR070A
89,89,STA-FR04001,STA-FR04001,FR.LCSQA-INERIS.AQ,1,FR04001,ISSY-LES-MOULINEAUX,ISSY-LES-MOULINEAUX,FR04001,1986-01-04T00:00:00+01:00,2013-07-24T00:00:00+01:00,48.8225,2.2692,urn:ogc:def:crs:EPSG::4326,36,http://dd.eionet.europa.eu/vocabulary/uom/length/m,http://dd.eionet.europa.eu/vocabulary/aq/areaclassification/urban,FR.LCSQA-INERIS.AQ/NET-FR004A
90,90,STA-FR04002,STA-FR04002,FR.LCSQA-INERIS.AQ,2,FR04002,GENNEVILLIERS,GENNEVILLIERS,FR04002,1986-01-08T00:00:00+01:00,,48.92972,2.294722,urn:ogc:def:crs:EPSG::4326,28,http://dd.eionet.europa.eu/vocabulary/uom/length/m,http://dd.eionet.europa.eu/vocabulary/aq/areaclassification/urban,FR.LCSQA-INERIS.AQ/NET-FR004A
91,91,STA-FR04004,STA-FR04004,FR.LCSQA-INERIS.AQ,3,FR04004,PARIS 18eme,PARIS 18E ARRONDISSEMENT,FR04004,1986-01-21T00:00:00+01:00,,48.891666,2.346667,urn:ogc:def:crs:EPSG::4326,60,http://dd.eionet.europa.eu/vocabulary/uom/length/m,http://dd.eionet.europa.eu/vocabulary/aq/areaclassification/urban,FR.LCSQA-INERIS.AQ/NET-FR004A
92,92,STA-FR04008,STA-FR04008,FR.LCSQA-INERIS.AQ,1,FR04008,CACHAN,CACHAN,FR04008,1994-07-07T00:00:00+01:00,2016-12-22T00:00:00+01:00,48.799442,2.330556,urn:ogc:def:crs:EPSG::4326,51,http://dd.eionet.europa.eu/vocabulary/uom/length/m,http://dd.eionet.europa.eu/vocabulary/aq/areaclassification/urban,FR.LCSQA-INERIS.AQ/NET-FR004A
93,93,STA-FR04012,STA-FR04012,FR.LCSQA-INERIS.AQ,2,FR04012,Place Victor Basch,PARIS 14E ARRONDISSEMENT,FR04012,1991-01-01T00:00:00+01:00,,48.827778,2.3275,urn:ogc:def:crs:EPSG::4326,66,http://dd.eionet.europa.eu/vocabulary/uom/length/m,http://dd.eionet.europa.eu/vocabulary/aq/areaclassification/urban,FR.LCSQA-INERIS.AQ/NET-FR004A
94,94,STA-FR04014,STA-FR04014,FR.LCSQA-INERIS.AQ,2,FR04014,PARIS 12eme,PARIS 12E ARRONDISSEMENT,FR04014,1991-09-07T00:00:00+01:00,,48.837223,2.3939,urn:ogc:def:crs:EPSG::4326,40,http://dd.eionet.europa.eu/vocabulary/uom/length/m,http://dd.eionet.europa.eu/vocabulary/aq/areaclassification/urban,FR.LCSQA-INERIS.AQ/NET-FR004A
95,95,STA-FR04017,STA-FR04017,FR.LCSQA-INERIS.AQ,2,FR04017,NEUILLY-SUR-SEINE,NEUILLY-SUR-SEINE,FR04017,1986-01-01T00:00:00+01:00,,48.88139,2.278056,urn:ogc:def:crs:EPSG::4326,36,http://dd.eionet.europa.eu/vocabulary/uom/length/m,http://dd.eionet.europa.eu/vocabulary/aq/areaclassification/urban,FR.LCSQA-INERIS.AQ/NET-FR004A
96,96,STA-FR04018,STA-FR04018,FR.LCSQA-INERIS.AQ,2,FR04018,AUBERVILLIERS,AUBERVILLIERS,FR04018,1988-01-01T00:00:00+01:00,,48.9039,2.3847,urn:ogc:def:crs:EPSG::4326,42,http://dd.eionet.europa.eu/vocabulary/uom/length/m,http://dd.eionet.europa.eu/vocabulary/aq/areaclassification/urban,FR.LCSQA-INERIS.AQ/NET-FR004A
97,97,STA-FR04023,STA-FR04023,FR.LCSQA-INERIS.AQ,2,FR04023,CERGY-PONTOISE,CERGY,FR04023,2000-01-25T00:00:00+01:00,,49.04639,2.043056,urn:ogc:def:crs:EPSG::4326,85,http://dd.eionet.europa.eu/vocabulary/uom/length/m,http://dd.eionet.europa.eu/vocabulary/aq/areaclassification/urban,FR.LCSQA-INERIS.AQ/NET-FR004A
98,98,STA-FR04024,STA-FR04024,FR.LCSQA-INERIS.AQ,2,FR04024,GONESSE,GONESSE,FR04024,2004-06-22T00:00:00+01:00,,48.99083,2.444722,urn:ogc:def:crs:EPSG::4326,65,http://dd.eionet.europa.eu/vocabulary/uom/length/m,http://dd.eionet.europa.eu/vocabulary/aq/areaclassification/suburban,FR.LCSQA-INERIS.AQ/NET-FR004A
99,99,STA-FR04029,STA-FR04029,FR.LCSQA-INERIS.AQ,2,FR04029,VERSAILLES,VERSAILLES,FR04029,1990-11-16T00:00:00+01:00,,48.799168,2.130556,urn:ogc:def:crs:EPSG::4326,125,http://dd.eionet.europa.eu/vocabulary/uom/length/m,http://dd.eionet.europa.eu/vocabulary/aq/areaclassification/suburban,FR.LCSQA-INERIS.AQ/NET-FR004A
100,100,STA-FR04031,STA-FR04031,FR.LCSQA-INERIS.AQ,2,FR04031,Av Champs Elysees,PARIS 8E ARRONDISSEMENT,FR04031,1990-01-24T00:00:00+01:00,,48.86889,2.311944,urn:ogc:def:crs:EPSG::4326,34,http://dd.eionet.europa.eu/vocabulary/uom/length/m,http://dd.eionet.europa.eu/vocabulary/aq/areaclassification/urban,FR.LCSQA-INERIS.AQ/NET-FR004A
101,101,STA-FR04034,STA-FR04034,FR.LCSQA-INERIS.AQ,2,FR04034,VITRY-SUR-SEINE,VITRY-SUR-SEINE,FR04034,1991-03-23T00:00:00+01:00,,48.7758,2.3758,urn:ogc:def:crs:EPSG::4326,95,http://dd.eionet.europa.eu/vocabulary/uom/length/m,http://dd.eionet.europa.eu/vocabulary/aq/areaclassification/urban,FR.LCSQA-INERIS.AQ/NET-FR004A
102,102,STA-FR04037,STA-FR04037,FR.LCSQA-INERIS.AQ,2,FR04037,PARIS 13eme,PARIS 13E ARRONDISSEMENT,FR04037,1991-07-19T00:00:00+01:00,,48.82861,2.360278,urn:ogc:def:crs:EPSG::4326,57,http://dd.eionet.europa.eu/vocabulary/uom/length/m,http://dd.eionet.europa.eu/vocabulary/aq/areaclassification/urban,FR.LCSQA-INERIS.AQ/NET-FR004A
103,103,STA-FR04038,STA-FR04038,FR.LCSQA-INERIS.AQ,2,FR04038,Zone Rurale SO,SONCHAMP,FR04038,1991-09-05T00:00:00+01:00,,48.581944,1.883333,urn:ogc:def:crs:EPSG::4326,152,http://dd.eionet.europa.eu/vocabulary/uom/length/m,http://dd.eionet.europa.eu/vocabulary/aq/areaclassification/rural-regional,FR.LCSQA-INERIS.AQ/NET-FR004A
104,104,STA-FR04048,STA-FR04048,FR.LCSQA-INERIS.AQ,2,FR04048,Zone Rurale Nord,SAINT-MARTIN-DU-TERTRE,FR04048,2000-05-04T00:00:00+01:00,,49.100277,2.343889,urn:ogc:def:crs:EPSG::4326,140,http://dd.eionet.europa.eu/vocabulary/uom/length/m,http://dd.eionet.europa.eu/vocabulary/aq/areaclassification/rural-regional,FR.LCSQA-INERIS.AQ/NET-FR004A
105,105,STA-FR04049,STA-FR04049,FR.LCSQA-INERIS.AQ,2,FR04049,LES ULIS,LES ULIS,FR04049,2000-05-10T00:00:00+01:00,,48.679443,2.165556,urn:ogc:def:crs:EPSG::4326,159,http://dd.eionet.europa.eu/vocabulary/uom/length/m,http://dd.eionet.europa.eu/vocabulary/aq/areaclassification/suburban,FR.LCSQA-INERIS.AQ/NET-FR004A
106,106,STA-FR04051,STA-FR04051,FR.LCSQA-INERIS.AQ,2,FR04051,ARGENTEUIL,ARGENTEUIL,FR04051,1992-06-25T00:00:00+01:00,,48.95139,2.223611,urn:ogc:def:crs:EPSG::4326,56,http://dd.eionet.europa.eu/vocabulary/uom/length/m,http://dd.eionet.europa.eu/vocabulary/aq/areaclassification/urban,FR.LCSQA-INERIS.AQ/NET-FR004A
107,107,STA-FR04055,STA-FR04055,FR.LCSQA-INERIS.AQ,2,FR04055,PARIS 1er Les Halles,PARIS 1ER ARRONDISSEMENT,FR04055,2001-06-28T00:00:00+01:00,,48.86212,2.344616,urn:ogc:def:crs:EPSG::4326,35,http://dd.eionet.europa.eu/vocabulary/uom/length/m,http://dd.eionet.europa.eu/vocabulary/aq/areaclassification/urban,FR.LCSQA-INERIS.AQ/NET-FR004A
108,108,STA-FR04058,STA-FR04058,FR.LCSQA-INERIS.AQ,2,FR04058,Auto A1 -Saint-Denis,SAINT-DENIS,FR04058,1993-01-22T00:00:00+01:00,,48.925278,2.356667,urn:ogc:def:crs:EPSG::4326,35,http://dd.eionet.europa.eu/vocabulary/uom/length/m,http://dd.eionet.europa.eu/vocabulary/aq/areaclassification/urban,FR.LCSQA-INERIS.AQ/NET-FR004A
109,109,STA-FR04059,STA-FR04059,FR.LCSQA-INERIS.AQ,2,FR04059,SAINT-DENIS,SAINT-DENIS,FR04059,1991-01-01T00:00:00+01:00,,48.93722,2.361667,urn:ogc:def:crs:EPSG::4326,31,http://dd.eionet.europa.eu/vocabulary/uom/length/m,http://dd.eionet.europa.eu/vocabulary/aq/areaclassification/urban,FR.LCSQA-INERIS.AQ/NET-FR004A
110,110,STA-FR04060,STA-FR04060,FR.LCSQA-INERIS.AQ,2,FR04060,PARIS 7eme,PARIS 7E ARRONDISSEMENT,FR04060,1992-02-27T00:00:00+01:00,,48.8572,2.2933,urn:ogc:def:crs:EPSG::4326,31,http://dd.eionet.europa.eu/vocabulary/uom/length/m,http://dd.eionet.europa.eu/vocabulary/aq/areaclassification/urban,FR.LCSQA-INERIS.AQ/NET-FR004A
111,111,STA-FR04063,STA-FR04063,FR.LCSQA-INERIS.AQ,2,FR04063,MANTES-LA-JOLIE,MANTES-LA-JOLIE,FR04063,1992-02-27T00:00:00+01:00,,48.9964,1.7033,urn:ogc:def:crs:EPSG::4326,32,http://dd.eionet.europa.eu/vocabulary/uom/length/m,http://dd.eionet.europa.eu/vocabulary/aq/areaclassification/suburban,FR.LCSQA-INERIS.AQ/NET-FR004A
112,112,STA-FR04066,STA-FR04066,FR.LCSQA-INERIS.AQ,2,FR04066,Zone rurale Sud,BOIS-HERPIN,FR04066,2002-07-08T00:00:00+01:00,,48.364166,2.236944,urn:ogc:def:crs:EPSG::4326,134,http://dd.eionet.europa.eu/vocabulary/uom/length/m,http://dd.eionet.europa.eu/vocabulary/aq/areaclassification/rural-regional,FR.LCSQA-INERIS.AQ/NET-FR004A
113,113,STA-FR04069,STA-FR04069,FR.LCSQA-INERIS.AQ,2,FR04069,MELUN,MELUN,FR04069,1993-11-19T00:00:00+01:00,,48.54139,2.661389,urn:ogc:def:crs:EPSG::4326,56,http://dd.eionet.europa.eu/vocabulary/uom/length/m,http://dd.eionet.europa.eu/vocabulary/aq/areaclassification/suburban,FR.LCSQA-INERIS.AQ/NET-FR004A
114,114,STA-FR04071,STA-FR04071,FR.LCSQA-INERIS.AQ,2,FR04071,Rue Bonaparte,PARIS 6E ARRONDISSEMENT,FR04071,1994-02-22T00:00:00+01:00,,48.856388,2.335278,urn:ogc:def:crs:EPSG::4326,32,http://dd.eionet.europa.eu/vocabulary/uom/length/m,http://dd.eionet.europa.eu/vocabulary/aq/areaclassification/urban,FR.LCSQA-INERIS.AQ/NET-FR004A
115,115,STA-FR04098,STA-FR04098,FR.LCSQA-INERIS.AQ,2,FR04098,LOGNES,LOGNES,FR04098,2003-12-12T00:00:00+01:00,,48.84028,2.635278,urn:ogc:def:crs:EPSG::4326,80,http://dd.eionet.europa.eu/vocabulary/uom/length/m,http://dd.eionet.europa.eu/vocabulary/aq/areaclassification/urban,FR.LCSQA-INERIS.AQ/NET-FR004A
116,116,STA-FR04099,STA-FR04099,FR.LCSQA-INERIS.AQ,2,FR04099,NOGENT-SUR-MARNE,NOGENT-SUR-MARNE,FR04099,2003-12-12T00:00:00+01:00,,48.840557,2.484444,urn:ogc:def:crs:EPSG::4326,88,http://dd.eionet.europa.eu/vocabulary/uom/length/m,http://dd.eionet.europa.eu/vocabulary/aq/areaclassification/urban,FR.LCSQA-INERIS.AQ/NET-FR004A
117,117,STA-FR04100,STA-FR04100,FR.LCSQA-INERIS.AQ,2,FR04100,VILLEMOMBLE,VILLEMOMBLE,FR04100,2004-01-13T00:00:00+01:00,,48.881947,2.507222,urn:ogc:def:crs:EPSG::4326,85,http://dd.eionet.europa.eu/vocabulary/uom/length/m,http://dd.eionet.europa.eu/vocabulary/aq/areaclassification/urban,FR.LCSQA-INERIS.AQ/NET-FR004A
118,118,STA-FR04101,STA-FR04101,FR.LCSQA-INERIS.AQ,2,FR04101,CHAMPIGNY-SUR-MARNE,CHAMPIGNY-SUR-MARNE,FR04101,2004-12-14T00:00:00+01:00,,48.816387,2.5175,urn:ogc:def:crs:EPSG::4326,74,http://dd.eionet.europa.eu/vocabulary/uom/length/m,http://dd.eionet.europa.eu/vocabulary/aq/areaclassification/urban,FR.LCSQA-INERIS.AQ/NET-FR004A
119,119,STA-FR04105,STA-FR04105,FR.LCSQA-INERIS.AQ,1,FR04105,BAGNOLET,BAGNOLET,FR04105,2006-12-14T00:00:00+01:00,2016-01-02T00:00:00+01:00,48.8728,2.4219,urn:ogc:def:crs:EPSG::4326,89,http://dd.eionet.europa.eu/vocabulary/uom/length/m,http://dd.eionet.europa.eu/vocabulary/aq/areaclassification/urban,FR.LCSQA-INERIS.AQ/NET-FR004A
120,120,STA-FR04118,STA-FR04118,FR.LCSQA-INERIS.AQ,2,FR04118,Place de l'Opéra,PARIS 2E ARRONDISSEMENT,FR04118,2011-01-24T00:00:00+01:00,,48.870274,2.3325,urn:ogc:def:crs:EPSG::4326,45,http://dd.eionet.europa.eu/vocabulary/uom/length/m,http://dd.eionet.europa.eu/vocabulary/aq/areaclassification/urban,FR.LCSQA-INERIS.AQ/NET-FR004A
121,121,STA-FR04122,STA-FR04122,FR.LCSQA-INERIS.AQ,2,FR04122,RN6-MELUN,MELUN,FR04122,2008-10-30T00:00:00+01:00,,48.528057,2.653611,urn:ogc:def:crs:EPSG::4326,48,http://dd.eionet.europa.eu/vocabulary/uom/length/m,http://dd.eionet.europa.eu/vocabulary/aq/areaclassification/suburban,FR.LCSQA-INERIS.AQ/NET-FR004A
122,122,STA-FR04123,STA-FR04123,FR.LCSQA-INERIS.AQ,2,FR04123,RN2-PANTIN,PANTIN,FR04123,2008-10-30T00:00:00+01:00,,48.90222,2.390833,urn:ogc:def:crs:EPSG::4326,44,http://dd.eionet.europa.eu/vocabulary/uom/length/m,http://dd.eionet.europa.eu/vocabulary/aq/areaclassification/urban,FR.LCSQA-INERIS.AQ/NET-FR004A
123,123,STA-FR04131,STA-FR04131,FR.LCSQA-INERIS.AQ,2,FR04131,Boulevard Haussmann,PARIS 9E ARRONDISSEMENT,FR04131,2010-02-08T00:00:00+01:00,,48.873333,2.330278,urn:ogc:def:crs:EPSG::4326,42,http://dd.eionet.europa.eu/vocabulary/uom/length/m,http://dd.eionet.europa.eu/vocabulary/aq/areaclassification/urban,FR.LCSQA-INERIS.AQ/NET-FR004A
124,124,STA-FR04135,STA-FR04135,FR.LCSQA-INERIS.AQ,2,FR04135,Boulevard Soult,PARIS 12E ARRONDISSEMENT,FR04135,2013-11-05T00:00:00+01:00,2023-03-14T00:00:00+01:00,48.83796,2.408061,urn:ogc:def:crs:EPSG::4326,44,http://dd.eionet.europa.eu/vocabulary/uom/length/m,http://dd.eionet.europa.eu/vocabulary/aq/areaclassification/urban,FR.LCSQA-INERIS.AQ/NET-FR004A
125,125,STA-FR04141,STA-FR04141,FR.LCSQA-INERIS.AQ,2,FR04141,Quai des Celestins,PARIS 4E ARRONDISSEMENT,FR04141,1993-08-24T00:00:00+01:00,,48.85278,2.360556,urn:ogc:def:crs:EPSG::4326,35,http://dd.eionet.europa.eu/vocabulary/uom/length/m,http://dd.eionet.europa.eu/vocabulary/aq/areaclassification/urban,FR.LCSQA-INERIS.AQ/NET-FR004A
126,126,STA-FR04142,STA-FR04142,FR.LCSQA-INERIS.AQ,2,FR04142,Zone Rurale Nord-Est,MONTGÉ-EN-GOËLE,FR04142,1993-05-15T00:00:00+01:00,,49.028057,2.750278,urn:ogc:def:crs:EPSG::4326,162,http://dd.eionet.europa.eu/vocabulary/uom/length/m,http://dd.eionet.europa.eu/vocabulary/aq/areaclassification/rural-regional,FR.LCSQA-INERIS.AQ/NET-FR004A
127,127,STA-FR04143,STA-FR04143,FR.LCSQA-INERIS.AQ,2,FR04143,PARIS Centre,PARIS 4E ARRONDISSEMENT,FR04143,2011-01-01T00:00:00+01:00,2019-09-24T00:00:00+01:00,48.859,2.351,urn:ogc:def:crs:EPSG::4326,37,http://dd.eionet.europa.eu/vocabulary/uom/length/m,http://dd.eionet.europa.eu/vocabulary/aq/areaclassification/urban,FR.LCSQA-INERIS.AQ/NET-FR004A
128,128,STA-FR04145,STA-FR04145,FR.LCSQA-INERIS.AQ,2,FR04145,GARCHES,GARCHES,FR04145,1994-01-04T00:00:00+01:00,2017-01-12T00:00:00+01:00,48.84639,2.189444,urn:ogc:def:crs:EPSG::4326,134,http://dd.eionet.europa.eu/vocabulary/uom/length/m,http://dd.eionet.europa.eu/vocabulary/aq/areaclassification/urban,FR.LCSQA-INERIS.AQ/NET-FR004A
129,129,STA-FR04146,STA-FR04146,FR.LCSQA-INERIS.AQ,2,FR04146,IVRY-SUR-SEINE,IVRY-SUR-SEINE,FR04146,1994-01-04T00:00:00+01:00,2018-06-30T00:00:00+01:00,48.8175,2.395,urn:ogc:def:crs:EPSG::4326,32,http://dd.eionet.europa.eu/vocabulary/uom/length/m,http://dd.eionet.europa.eu/vocabulary/aq/areaclassification/urban,FR.LCSQA-INERIS.AQ/NET-FR004A
130,130,STA-FR04149,STA-FR04149,FR.LCSQA-INERIS.AQ,2,FR04149,MONTGERON,MONTGERON,FR04149,1994-06-06T00:00:00+01:00,,48.7067,2.4572,urn:ogc:def:crs:EPSG::4326,68,http://dd.eionet.europa.eu/vocabulary/uom/length/m,http://dd.eionet.europa.eu/vocabulary/aq/areaclassification/urban,FR.LCSQA-INERIS.AQ/NET-FR004A
131,131,STA-FR04150,STA-FR04150,FR.LCSQA-INERIS.AQ,2,FR04150,LA DEFENSE,PUTEAUX,FR04150,1995-05-02T00:00:00+01:00,,48.891388,2.240556,urn:ogc:def:crs:EPSG::4326,58,http://dd.eionet.europa.eu/vocabulary/uom/length/m,http://dd.eionet.europa.eu/vocabulary/aq/areaclassification/urban,FR.LCSQA-INERIS.AQ/NET-FR004A
132,132,STA-FR04156,STA-FR04156,FR.LCSQA-INERIS.AQ,2,FR04156,BOBIGNY,BOBIGNY,FR04156,1995-05-19T00:00:00+01:00,,48.902504,2.4525,urn:ogc:def:crs:EPSG::4326,51,http://dd.eionet.europa.eu/vocabulary/uom/length/m,http://dd.eionet.europa.eu/vocabulary/aq/areaclassification/urban,FR.LCSQA-INERIS.AQ/NET-FR004A
133,133,STA-FR04158,STA-FR04158,FR.LCSQA-INERIS.AQ,2,FR04158,Zone Rurale NO,FRÉMAINVILLE,FR04158,1998-02-26T00:00:00+01:00,,49.063087,1.866381,urn:ogc:def:crs:EPSG::4326,122,http://dd.eionet.europa.eu/vocabulary/uom/length/m,http://dd.eionet.europa.eu/vocabulary/aq/areaclassification/rural-regional,FR.LCSQA-INERIS.AQ/NET-FR004A
134,134,STA-FR04173,STA-FR04173,FR.LCSQA-INERIS.AQ,3,FR04173,RD934 Coulommiers,COULOMMIERS,FR04173,2013-02-27T00:00:00+01:00,,48.8059,3.084158,urn:ogc:def:crs:EPSG::4326,73,http://dd.eionet.europa.eu/vocabulary/uom/length/m,http://dd.eionet.europa.eu/vocabulary/aq/areaclassification/suburban,FR.LCSQA-INERIS.AQ/NET-FR004A
135,135,STA-FR04179,STA-FR04179,FR.LCSQA-INERIS.AQ,2,FR04179,PARIS Stade Lenglen,PARIS 15E ARRONDISSEMENT,FR04179,2013-12-24T00:00:00+01:00,,48.830387,2.269889,urn:ogc:def:crs:EPSG::4326,32,http://dd.eionet.europa.eu/vocabulary/uom/length/m,http://dd.eionet.europa.eu/vocabulary/aq/areaclassification/urban,FR.LCSQA-INERIS.AQ/NET-FR004A
136,136,STA-FR04180,STA-FR04180,FR.LCSQA-INERIS.AQ,2,FR04180,RN20 - MONTLHERY,MONTLHÉRY,FR04180,2014-12-06T00:00:00+01:00,,48.64093,2.26872,urn:ogc:def:crs:EPSG::4326,81,http://dd.eionet.europa.eu/vocabulary/uom/length/m,http://dd.eionet.europa.eu/vocabulary/aq/areaclassification/suburban,FR.LCSQA-INERIS.AQ/NET-FR004A
137,137,STA-FR04181,STA-FR04181,FR.LCSQA-INERIS.AQ,3,FR04181,RAMBOUILLET,RAMBOUILLET,FR04181,2014-12-15T00:00:00+01:00,,48.63373,1.830529,urn:ogc:def:crs:EPSG::4326,164,http://dd.eionet.europa.eu/vocabulary/uom/length/m,http://dd.eionet.europa.eu/vocabulary/aq/areaclassification/suburban,FR.LCSQA-INERIS.AQ/NET-FR004A
138,138,STA-FR04184,STA-FR04184,FR.LCSQA-INERIS.AQ,2,FR04184,BAGNEAUX-SUR-LOING,BAGNEAUX-SUR-LOING,FR04184,2016-01-05T00:00:00+01:00,,48.231476,2.7061777,urn:ogc:def:crs:EPSG::4326,62,http://dd.eionet.europa.eu/vocabulary/uom/length/m,http://dd.eionet.europa.eu/vocabulary/aq/areaclassification/suburban,FR.LCSQA-INERIS.AQ/NET-FR004A
139,139,STA-FR04185,STA-FR04185,FR.LCSQA-INERIS.AQ,2,FR04185,POMMEUSE,POMMEUSE,FR04185,2016-11-24T00:00:00+01:00,,48.81588,2.9912472,urn:ogc:def:crs:EPSG::4326,72,http://dd.eionet.europa.eu/vocabulary/uom/length/m,http://dd.eionet.europa.eu/vocabulary/aq/areaclassification/urban,FR.LCSQA-INERIS.AQ/NET-FR004A
140,140,STA-FR04319,STA-FR04319,FR.LCSQA-INERIS.AQ,2,FR04319,TREMBLAY-EN-FRANCE,TREMBLAY-EN-FRANCE,FR04319,1998-05-14T00:00:00+01:00,,48.95555,2.575278,urn:ogc:def:crs:EPSG::4326,65,http://dd.eionet.europa.eu/vocabulary/uom/length/m,http://dd.eionet.europa.eu/vocabulary/aq/areaclassification/suburban,FR.LCSQA-INERIS.AQ/NET-FR004A
141,141,STA-FR04322,STA-FR04322,FR.LCSQA-INERIS.AQ,1,FR04322,Zone Rurale Ouest,PRUNAY-LE-TEMPLE,FR04322,1998-02-26T00:00:00+01:00,2015-01-02T00:00:00+01:00,48.8603,1.6767,urn:ogc:def:crs:EPSG::4326,98,http://dd.eionet.europa.eu/vocabulary/uom/length/m,http://dd.eionet.europa.eu/vocabulary/aq/areaclassification/rural-regional,FR.LCSQA-INERIS.AQ/NET-FR004A
142,142,STA-FR04323,STA-FR04323,FR.LCSQA-INERIS.AQ,2,FR04323,EVRY,ÉVRY-COURCOURONNES,FR04323,1998-12-17T00:00:00+01:00,,48.62722,2.429167,urn:ogc:def:crs:EPSG::4326,81,http://dd.eionet.europa.eu/vocabulary/uom/length/m,http://dd.eionet.europa.eu/vocabulary/aq/areaclassification/urban,FR.LCSQA-INERIS.AQ/NET-FR004A
143,143,STA-FR04324,STA-FR04324,FR.LCSQA-INERIS.AQ,2,FR04324,Zone Rurale Est,BEAUTHEIL-SAINTS,FR04324,1999-01-06T00:00:00+01:00,,48.761665,3.058333,urn:ogc:def:crs:EPSG::4326,120,http://dd.eionet.europa.eu/vocabulary/uom/length/m,http://dd.eionet.europa.eu/vocabulary/aq/areaclassification/rural-regional,FR.LCSQA-INERIS.AQ/NET-FR004A
144,144,STA-FR04328,STA-FR04328,FR.LCSQA-INERIS.AQ,2,FR04328,Zone Rurale SE,FONTAINEBLEAU,FR04328,1999-06-14T00:00:00+01:00,,48.3547,2.6453,urn:ogc:def:crs:EPSG::4326,127,http://dd.eionet.europa.eu/vocabulary/uom/length/m,http://dd.eionet.europa.eu/vocabulary/aq/areaclassification/rural-regional,FR.LCSQA-INERIS.AQ/NET-FR004A
145,145,STA-FR04329,STA-FR04329,FR.LCSQA-INERIS.AQ,2,FR04329,Bld peripherique Est,PARIS 12E ARRONDISSEMENT,FR04329,2012-12-21T00:00:00+01:00,,48.838615,2.412781,urn:ogc:def:crs:EPSG::4326,49,http://dd.eionet.europa.eu/vocabulary/uom/length/m,http://dd.eionet.europa.eu/vocabulary/aq/areaclassification/urban,FR.LCSQA-INERIS.AQ/NET-FR004A
146,146,STA-FR04331,STA-FR04331,FR.LCSQA-INERIS.AQ,2,FR04331,LIMAY,LIMAY,FR04331,2014-12-30T00:00:00+01:00,,48.985523,1.754142,urn:ogc:def:crs:EPSG::4326,35,http://dd.eionet.europa.eu/vocabulary/uom/length/m,http://dd.eionet.europa.eu/vocabulary/aq/areaclassification/suburban,FR.LCSQA-INERIS.AQ/NET-FR004A
147,147,STA-FR04333,STA-FR04333,FR.LCSQA-INERIS.AQ,2,FR04333,ARGENTEUIL Hôtel de Ville,ARGENTEUIL,FR04333,2015-01-03T00:00:00+01:00,2020-01-01T00:00:00+01:00,48.948124,2.248817,urn:ogc:def:crs:EPSG::4326,35,http://dd.eionet.europa.eu/vocabulary/uom/length/m,http://dd.eionet.europa.eu/vocabulary/aq/areaclassification/urban,FR.LCSQA-INERIS.AQ/NET-FR004A
148,148,STA-FR04342,STA-FR04342,FR.LCSQA-INERIS.AQ,1,FR04342,Quai de la Mégisserie,PARIS 1ER ARRONDISSEMENT,FR04342,2018-03-12T00:00:00+01:00,,48.85755,2.346206,urn:ogc:def:crs:EPSG::4326,33,http://dd.eionet.europa.eu/vocabulary/uom/length/m,http://dd.eionet.europa.eu/vocabulary/aq/areaclassification/urban,FR.LCSQA-INERIS.AQ/NET-FR004A
149,149,STA-FR05010,STA-FR05010,FR.LCSQA-INERIS.AQ,2,FR05010,St Romain de Colbosc,SAINT-ROMAIN-DE-COLBOSC,FR05010,1976-01-01T00:00:00+01:00,,49.528927,0.358733,urn:ogc:def:crs:EPSG::4326,117,http://dd.eionet.europa.eu/vocabulary/uom/length/m,http://dd.eionet.europa.eu/vocabulary/aq/areaclassification/suburban,FR.LCSQA-INERIS.AQ/NET-FR069A
150,150,STA-FR05037,STA-FR05037,FR.LCSQA-INERIS.AQ,2,FR05037,Caucriauville,LE HAVRE,FR05037,1976-01-01T00:00:00+01:00,,49.503906,0.175731,urn:ogc:def:crs:EPSG::4326,70,http://dd.eionet.europa.eu/vocabulary/uom/length/m,http://dd.eionet.europa.eu/vocabulary/aq/areaclassification/urban,FR.LCSQA-INERIS.AQ/NET-FR069A
151,151,STA-FR05040,STA-FR05040,FR.LCSQA-INERIS.AQ,4,FR05040,Honfleur Sce Tech.,HONFLEUR,FR05040,2021-01-01T00:00:00+01:00,,49.415108,0.2437,urn:ogc:def:crs:EPSG::4326,24,http://dd.eionet.europa.eu/vocabulary/uom/length/m,http://dd.eionet.europa.eu/vocabulary/aq/areaclassification/urban,FR.LCSQA-INERIS.AQ/NET-FR069A
152,152,STA-FR05054,STA-FR05054,FR.LCSQA-INERIS.AQ,2,FR05054,Le Havre Les Neiges,LE HAVRE,FR05054,1993-04-21T00:00:00+01:00,2018-02-03T00:00:00+01:00,49.481087,0.165289,urn:ogc:def:crs:EPSG::4326,6,http://dd.eionet.europa.eu/vocabulary/uom/length/m,http://dd.eionet.europa.eu/vocabulary/aq/areaclassification/urban,FR.LCSQA-INERIS.AQ/NET-FR069A
153,153,STA-FR05056,STA-FR05056,FR.LCSQA-INERIS.AQ,2,FR05056,Quillebeuf Phare,QUILLEBEUF-SUR-SEINE,FR05056,1991-09-19T00:00:00+01:00,,49.47372,0.526158,urn:ogc:def:crs:EPSG::4326,5,http://dd.eionet.europa.eu/vocabulary/uom/length/m,http://dd.eionet.europa.eu/vocabulary/aq/areaclassification/rural-nearcity,FR.LCSQA-INERIS.AQ/NET-FR069A
154,154,STA-FR05069,STA-FR05069,FR.LCSQA-INERIS.AQ,2,FR05069,Tancarville Mairie,TANCARVILLE,FR05069,1997-09-08T00:00:00+01:00,,49.487682,0.451756,urn:ogc:def:crs:EPSG::4326,96,http://dd.eionet.europa.eu/vocabulary/uom/length/m,http://dd.eionet.europa.eu/vocabulary/aq/areaclassification/rural-nearcity,FR.LCSQA-INERIS.AQ/NET-FR069A
155,155,STA-FR05070,STA-FR05070,FR.LCSQA-INERIS.AQ,2,FR05070,Harfleur Ecole Coty,HARFLEUR,FR05070,1998-04-15T00:00:00+01:00,,49.505,0.201694,urn:ogc:def:crs:EPSG::4326,15,http://dd.eionet.europa.eu/vocabulary/uom/length/m,http://dd.eionet.europa.eu/vocabulary/aq/areaclassification/urban,FR.LCSQA-INERIS.AQ/NET-FR069A
156,156,STA-FR05072,STA-FR05072,FR.LCSQA-INERIS.AQ,2,FR05072,Sainte Adresse,SAINTE-ADRESSE,FR05072,1997-08-21T00:00:00+01:00,,49.50386,0.084614,urn:ogc:def:crs:EPSG::4326,51,http://dd.eionet.europa.eu/vocabulary/uom/length/m,http://dd.eionet.europa.eu/vocabulary/aq/areaclassification/urban,FR.LCSQA-INERIS.AQ/NET-FR069A
157,157,STA-FR05074,STA-FR05074,FR.LCSQA-INERIS.AQ,2,FR05074,Le Havre Ec. Herriot,LE HAVRE,FR05074,1999-04-28T00:00:00+01:00,,49.48963,0.100703,urn:ogc:def:crs:EPSG::4326,5,http://dd.eionet.europa.eu/vocabulary/uom/length/m,http://dd.eionet.europa.eu/vocabulary/aq/areaclassification/urban,FR.LCSQA-INERIS.AQ/NET-FR069A
158,158,STA-FR05078,STA-FR05078,FR.LCSQA-INERIS.AQ,2,FR05078,Le Havre Massillon,LE HAVRE,FR05078,2002-02-06T00:00:00+01:00,,49.4983,0.142706,urn:ogc:def:crs:EPSG::4326,3,http://dd.eionet.europa.eu/vocabulary/uom/length/m,http://dd.eionet.europa.eu/vocabulary/aq/areaclassification/urban,FR.LCSQA-INERIS.AQ/NET-FR069A
159,159,STA-FR05079,STA-FR05079,FR.LCSQA-INERIS.AQ,1,FR05079,Montivilliers,MONTIVILLIERS,FR05079,1999-07-22T00:00:00+01:00,2015-05-01T00:00:00+01:00,49.545414,0.185369,urn:ogc:def:crs:EPSG::4326,20,http://dd.eionet.europa.eu/vocabulary/uom/length/m,http://dd.eionet.europa.eu/vocabulary/aq/areaclassification/suburban,FR.LCSQA-INERIS.AQ/NET-FR069A
160,160,STA-FR05080,STA-FR05080,FR.LCSQA-INERIS.AQ,2,FR05080,Rogerville Mairie,ROGERVILLE,FR05080,1999-12-03T00:00:00+01:00,,49.50362,0.266872,urn:ogc:def:crs:EPSG::4326,92,http://dd.eionet.europa.eu/vocabulary/uom/length/m,http://dd.eionet.europa.eu/vocabulary/aq/areaclassification/suburban,FR.LCSQA-INERIS.AQ/NET-FR069A
161,161,STA-FR05081,STA-FR05081,FR.LCSQA-INERIS.AQ,2,FR05081,La Cerlangue,LA CERLANGUE,FR05081,2001-05-11T00:00:00+01:00,,49.504036,0.411594,urn:ogc:def:crs:EPSG::4326,120,http://dd.eionet.europa.eu/vocabulary/uom/length/m,http://dd.eionet.europa.eu/vocabulary/aq/areaclassification/rural-nearcity,FR.LCSQA-INERIS.AQ/NET-FR069A
162,162,STA-FR05082,STA-FR05082,FR.LCSQA-INERIS.AQ,3,FR05082,Touques,TOUQUES,FR05082,2003-05-27T00:00:00+01:00,,49.348,0.109253,urn:ogc:def:crs:EPSG::4326,45,http://dd.eionet.europa.eu/vocabulary/uom/length/m,http://dd.eionet.europa.eu/vocabulary/aq/areaclassification/suburban,FR.LCSQA-INERIS.AQ/NET-FR069A
163,163,STA-FR05083,STA-FR05083,FR.LCSQA-INERIS.AQ,2,FR05083,Gonfreville l Orcher,GONFREVILLE-L'ORCHER,FR05083,2000-07-19T00:00:00+01:00,,49.50273,0.232486,urn:ogc:def:crs:EPSG::4326,80,http://dd.eionet.europa.eu/vocabulary/uom/length/m,http://dd.eionet.europa.eu/vocabulary/aq/areaclassification/urban,FR.LCSQA-INERIS.AQ/NET-FR069A
164,164,STA-FR05084,STA-FR05084,FR.LCSQA-INERIS.AQ,2,FR05084,NDGravenchon Pasteur,PORT-JÉRÔME-SUR-SEINE,FR05084,2003-05-22T00:00:00+01:00,,49.493332,0.571853,urn:ogc:def:crs:EPSG::4326,35,http://dd.eionet.europa.eu/vocabulary/uom/length/m,http://dd.eionet.europa.eu/vocabulary/aq/areaclassification/urban,FR.LCSQA-INERIS.AQ/NET-FR069A
165,165,STA-FR05085,STA-FR05085,FR.LCSQA-INERIS.AQ,2,FR05085,Lillebonne,LILLEBONNE,FR05085,2008-10-16T00:00:00+01:00,,49.512146,0.539036,urn:ogc:def:crs:EPSG::4326,18,http://dd.eionet.europa.eu/vocabulary/uom/length/m,http://dd.eionet.europa.eu/vocabulary/aq/areaclassification/urban,FR.LCSQA-INERIS.AQ/NET-FR069A
166,166,STA-FR05087,STA-FR05087,FR.LCSQA-INERIS.AQ,3,FR05087,Maison Parc Brotonne,NOTRE-DAME-DE-BLIQUETUIT,FR05087,2009-01-19T00:00:00+01:00,,49.498295,0.758833,urn:ogc:def:crs:EPSG::4326,10,http://dd.eionet.europa.eu/vocabulary/uom/length/m,http://dd.eionet.europa.eu/vocabulary/aq/areaclassification/rural-regional,FR.LCSQA-INERIS.AQ/NET-FR069A
167,167,STA-FR05088,STA-FR05088,FR.LCSQA-INERIS.AQ,3,FR05088,Fécamp,FÉCAMP,FR05088,2011-12-01T00:00:00+01:00,,49.75,0.4159,urn:ogc:def:crs:EPSG::4326,20,http://dd.eionet.europa.eu/vocabulary/uom/length/m,http://dd.eionet.europa.eu/vocabulary/aq/areaclassification/suburban,FR.LCSQA-INERIS.AQ/NET-FR069A
168,168,STA-FR05089,STA-FR05089,FR.LCSQA-INERIS.AQ,2,FR05089,Le Havre Lafaurie-montant,LE HAVRE,FR05089,2013-02-01T00:00:00+01:00,,49.500187,0.110903,urn:ogc:def:crs:EPSG::4326,60,http://dd.eionet.europa.eu/vocabulary/uom/length/m,http://dd.eionet.europa.eu/vocabulary/aq/areaclassification/urban,FR.LCSQA-INERIS.AQ/NET-FR069A
169,169,STA-FR05090,STA-FR05090,FR.LCSQA-INERIS.AQ,2,FR05090,Le Havre ville-haute,LE HAVRE,FR05090,2015-01-15T00:00:00+01:00,,49.514687,0.100645,urn:ogc:def:crs:EPSG::4326,92,http://dd.eionet.europa.eu/vocabulary/uom/length/m,http://dd.eionet.europa.eu/vocabulary/aq/areaclassification/urban,FR.LCSQA-INERIS.AQ/NET-FR069A
170,170,STA-FR05100,STA-FR05100,FR.LCSQA-INERIS.AQ,1,FR05100,Le Havre Lafaurie-descendant,LE HAVRE,FR05100,2011-07-05T00:00:00+01:00,2013-07-02T00:00:00+01:00,49.4994,0.108361,urn:ogc:def:crs:EPSG::4326,50,http://dd.eionet.europa.eu/vocabulary/uom/length/m,http://dd.eionet.europa.eu/vocabulary/aq/areaclassification/urban,FR.LCSQA-INERIS.AQ/NET-FR069A
171,171,STA-FR05500,STA-FR05500,FR.LCSQA-INERIS.AQ,2,FR05500,Gonfreville l Orcher Côte Blanche,GONFREVILLE-L'ORCHER,FR05500,2007-01-05T00:00:00+01:00,,49.4989,0.2296,urn:ogc:def:crs:EPSG::4326,5,http://dd.eionet.europa.eu/vocabulary/uom/length/m,http://dd.eionet.europa.eu/vocabulary/aq/areaclassification/urban,FR.LCSQA-INERIS.AQ/NET-FR069A
172,172,STA-FR05501,STA-FR05501,FR.LCSQA-INERIS.AQ,2,FR05501,Gonfreville Pissotière à Madame,ROGERVILLE,FR05501,2007-01-05T00:00:00+01:00,,49.4975,0.2531,urn:ogc:def:crs:EPSG::4326,6,http://dd.eionet.europa.eu/vocabulary/uom/length/m,http://dd.eionet.europa.eu/vocabulary/aq/areaclassification/urban,FR.LCSQA-INERIS.AQ/NET-FR069A
173,173,STA-FR05502,STA-FR05502,FR.LCSQA-INERIS.AQ,2,FR05502,Quillebeuf sur Seine rue Féret,QUILLEBEUF-SUR-SEINE,FR05502,2008-01-02T00:00:00+01:00,,49.4675,0.531,urn:ogc:def:crs:EPSG::4326,20,http://dd.eionet.europa.eu/vocabulary/uom/length/m,http://dd.eionet.europa.eu/vocabulary/aq/areaclassification/rural-nearcity,FR.LCSQA-INERIS.AQ/NET-FR069A
174,174,STA-FR05503,STA-FR05503,FR.LCSQA-INERIS.AQ,2,FR05503,Notre Dame de Gravenchon Prevert,PORT-JÉRÔME-SUR-SEINE,FR05503,2008-01-02T00:00:00+01:00,,49.4811,0.574611,urn:ogc:def:crs:EPSG::4326,9,http://dd.eionet.europa.eu/vocabulary/uom/length/m,http://dd.eionet.europa.eu/vocabulary/aq/areaclassification/urban,FR.LCSQA-INERIS.AQ/NET-FR069A
175,175,STA-FR05504,STA-FR05504,FR.LCSQA-INERIS.AQ,1,FR05504,Le Havre Pasteur,LE HAVRE,FR05504,2018-02-08T00:00:00+01:00,2019-12-20T00:00:00+01:00,49.5032,0.1301,urn:ogc:def:crs:EPSG::4326,70,http://dd.eionet.europa.eu/vocabulary/uom/length/m,http://dd.eionet.europa.eu/vocabulary/aq/areaclassification/urban,FR.LCSQA-INERIS.AQ/NET-FR069A
176,176,STA-FR06001,STA-FR06001,FR.LCSQA-INERIS.AQ,2,FR06001,Valenciennes Acacias,VALENCIENNES,FR06001,1998-04-05T00:00:00+01:00,,50.35853,3.50804,urn:ogc:def:crs:EPSG::4326,43,http://dd.eionet.europa.eu/vocabulary/uom/length/m,http://dd.eionet.europa.eu/vocabulary/aq/areaclassification/urban,FR.LCSQA-INERIS.AQ/NET-FR074A
177,177,STA-FR06003,STA-FR06003,FR.LCSQA-INERIS.AQ,2,FR06003,Douai Theuriet,DOUAI,FR06003,1998-07-17T00:00:00+01:00,,50.37822,3.06586,urn:ogc:def:crs:EPSG::4326,28,http://dd.eionet.europa.eu/vocabulary/uom/length/m,http://dd.eionet.europa.eu/vocabulary/aq/areaclassification/urban,FR.LCSQA-INERIS.AQ/NET-FR074A
178,178,STA-FR06006,STA-FR06006,FR.LCSQA-INERIS.AQ,2,FR06006,Valenciennes Wallon,VALENCIENNES,FR06006,1999-08-31T00:00:00+01:00,,50.36425,3.52273,urn:ogc:def:crs:EPSG::4326,21,http://dd.eionet.europa.eu/vocabulary/uom/length/m,http://dd.eionet.europa.eu/vocabulary/aq/areaclassification/urban,FR.LCSQA-INERIS.AQ/NET-FR074A
179,179,STA-FR06007,STA-FR06007,FR.LCSQA-INERIS.AQ,2,FR06007,Maubeuge Joyeuse,MAUBEUGE,FR06007,1999-07-29T00:00:00+01:00,,50.27936,3.97691,urn:ogc:def:crs:EPSG::4326,133,http://dd.eionet.europa.eu/vocabulary/uom/length/m,http://dd.eionet.europa.eu/vocabulary/aq/areaclassification/urban,FR.LCSQA-INERIS.AQ/NET-FR074A
180,180,STA-FR06009,STA-FR06009,FR.LCSQA-INERIS.AQ,2,FR06009,Cambrai Gambetta,CAMBRAI,FR06009,1999-12-09T00:00:00+01:00,2018-12-15T00:00:00+01:00,50.17249,3.23606,urn:ogc:def:crs:EPSG::4326,59,http://dd.eionet.europa.eu/vocabulary/uom/length/m,http://dd.eionet.europa.eu/vocabulary/aq/areaclassification/urban,FR.LCSQA-INERIS.AQ/NET-FR074A
181,181,STA-FR06011,STA-FR06011,FR.LCSQA-INERIS.AQ,2,FR06011,Denain Villars,DENAIN,FR06011,2000-03-20T00:00:00+01:00,,50.32276,3.39593,urn:ogc:def:crs:EPSG::4326,31,http://dd.eionet.europa.eu/vocabulary/uom/length/m,http://dd.eionet.europa.eu/vocabulary/aq/areaclassification/suburban,FR.LCSQA-INERIS.AQ/NET-FR074A
182,182,STA-FR06022,STA-FR06022,FR.LCSQA-INERIS.AQ,1,FR06022,Station SNET,HORNAING,FR06022,2009-01-06T00:00:00+01:00,2016-02-11T00:00:00+01:00,50.36641,3.33942,urn:ogc:def:crs:EPSG::4326,22,http://dd.eionet.europa.eu/vocabulary/uom/length/m,http://dd.eionet.europa.eu/vocabulary/aq/areaclassification/suburban,FR.LCSQA-INERIS.AQ/NET-FR074A
183,183,STA-FR06023,STA-FR06023,FR.LCSQA-INERIS.AQ,2,FR06023,Escautpont,ESCAUTPONT,FR06023,2009-01-01T00:00:00+01:00,2017-08-24T00:00:00+01:00,50.420288,3.551811,urn:ogc:def:crs:EPSG::4326,25,http://dd.eionet.europa.eu/vocabulary/uom/length/m,http://dd.eionet.europa.eu/vocabulary/aq/areaclassification/suburban,FR.LCSQA-INERIS.AQ/NET-FR074A
184,184,STA-FR06133,STA-FR06133,FR.LCSQA-INERIS.AQ,2,FR06133,Cartignies,CARTIGNIES,FR06133,2011-07-07T00:00:00+01:00,,50.09225,3.85003,urn:ogc:def:crs:EPSG::4326,151,http://dd.eionet.europa.eu/vocabulary/uom/length/m,http://dd.eionet.europa.eu/vocabulary/aq/areaclassification/rural-nearcity,FR.LCSQA-INERIS.AQ/NET-FR074A
185,185,STA-FR06134,STA-FR06134,FR.LCSQA-INERIS.AQ,2,FR06134,Saint Amand,SAINT-AMAND-LES-EAUX,FR06134,2011-07-27T00:00:00+01:00,,50.45647,3.42794,urn:ogc:def:crs:EPSG::4326,22,http://dd.eionet.europa.eu/vocabulary/uom/length/m,http://dd.eionet.europa.eu/vocabulary/aq/areaclassification/suburban,FR.LCSQA-INERIS.AQ/NET-FR074A
186,186,STA-FR07001,STA-FR07001,FR.LCSQA-INERIS.AQ,2,FR07001,Royat,ROYAT,FR07001,1992-06-30T00:00:00+01:00,2018-01-05T00:00:00+01:00,45.764668,3.047194,urn:ogc:def:crs:EPSG::4326,520,http://dd.eionet.europa.eu/vocabulary/uom/length/m,http://dd.eionet.europa.eu/vocabulary/aq/areaclassification/suburban,FR.LCSQA-INERIS.AQ/NET-FR071A
187,187,STA-FR07004,STA-FR07004,FR.LCSQA-INERIS.AQ,3,FR07004,Montferrand,CLERMONT-FERRAND,FR07004,1993-02-06T00:00:00+01:00,,45.79728,3.113833,urn:ogc:def:crs:EPSG::4326,340,http://dd.eionet.europa.eu/vocabulary/uom/length/m,http://dd.eionet.europa.eu/vocabulary/aq/areaclassification/urban,FR.LCSQA-INERIS.AQ/NET-FR071A
188,188,STA-FR07008,STA-FR07008,FR.LCSQA-INERIS.AQ,1,FR07008,Delille,CLERMONT-FERRAND,FR07008,1998-01-01T00:00:00+01:00,2013-06-14T00:00:00+01:00,45.78089,3.094583,urn:ogc:def:crs:EPSG::4326,370,http://dd.eionet.europa.eu/vocabulary/uom/length/m,http://dd.eionet.europa.eu/vocabulary/aq/areaclassification/urban,FR.LCSQA-INERIS.AQ/NET-FR071A
189,189,STA-FR07009,STA-FR07009,FR.LCSQA-INERIS.AQ,2,FR07009,Jardin Lecoq,CLERMONT-FERRAND,FR07009,2003-01-02T00:00:00+01:00,,45.772167,3.0875,urn:ogc:def:crs:EPSG::4326,390,http://dd.eionet.europa.eu/vocabulary/uom/length/m,http://dd.eionet.europa.eu/vocabulary/aq/areaclassification/urban,FR.LCSQA-INERIS.AQ/NET-FR071A
190,190,STA-FR07010,STA-FR07010,FR.LCSQA-INERIS.AQ,1,FR07010,Montlucon Centre,MONTLUCON,FR07010,1991-08-01T00:00:00+01:00,2016-12-16T00:00:00+01:00,46.344,2.598,urn:ogc:def:crs:EPSG::4326,205,http://dd.eionet.europa.eu/vocabulary/uom/length/m,http://dd.eionet.europa.eu/vocabulary/aq/areaclassification/urban,FR.LCSQA-INERIS.AQ/NET-FR071A
191,191,STA-FR07011,STA-FR07011,FR.LCSQA-INERIS.AQ,1,FR07011,Aurillac Centre,AURILLAC,FR07011,1991-11-01T00:00:00+01:00,2015-12-30T00:00:00+01:00,44.923164,2.436778,urn:ogc:def:crs:EPSG::4326,640,http://dd.eionet.europa.eu/vocabulary/uom/length/m,http://dd.eionet.europa.eu/vocabulary/aq/areaclassification/urban,FR.LCSQA-INERIS.AQ/NET-FR071A
192,192,STA-FR07012,STA-FR07012,FR.LCSQA-INERIS.AQ,1,FR07012,Le Puy Centre,LE PUY-EN-VELAY,FR07012,1998-11-01T00:00:00+01:00,2015-12-31T00:00:00+01:00,45.045002,3.883001,urn:ogc:def:crs:EPSG::4326,645,http://dd.eionet.europa.eu/vocabulary/uom/length/m,http://dd.eionet.europa.eu/vocabulary/aq/areaclassification/urban,FR.LCSQA-INERIS.AQ/NET-FR071A
193,193,STA-FR07013,STA-FR07013,FR.LCSQA-INERIS.AQ,2,FR07013,Montlucon Chateau,MONTLUÇON,FR07013,1999-08-30T00:00:00+01:00,2017-04-04T00:00:00+01:00,46.34,2.605,urn:ogc:def:crs:EPSG::4326,215,http://dd.eionet.europa.eu/vocabulary/uom/length/m,http://dd.eionet.europa.eu/vocabulary/aq/areaclassification/urban,FR.LCSQA-INERIS.AQ/NET-FR071A
194,194,STA-FR07014,STA-FR07014,FR.LCSQA-INERIS.AQ,1,FR07014,Aurillac Aerodrome,AURILLAC,FR07014,1992-04-01T00:00:00+01:00,2015-12-30T00:00:00+01:00,44.898335,2.420194,urn:ogc:def:crs:EPSG::4326,640,http://dd.eionet.europa.eu/vocabulary/uom/length/m,http://dd.eionet.europa.eu/vocabulary/aq/areaclassification/suburban,FR.LCSQA-INERIS.AQ/NET-FR071A
195,195,STA-FR07016,STA-FR07016,FR.LCSQA-INERIS.AQ,2,FR07016,Montlucon Hippodrome,MONTLUÇON,FR07016,1994-07-01T00:00:00+01:00,2017-01-03T00:00:00+01:00,46.324,2.601,urn:ogc:def:crs:EPSG::4326,205,http://dd.eionet.europa.eu/vocabulary/uom/length/m,http://dd.eionet.europa.eu/vocabulary/aq/areaclassification/suburban,FR.LCSQA-INERIS.AQ/NET-FR071A
196,196,STA-FR07017,STA-FR07017,FR.LCSQA-INERIS.AQ,1,FR07017,Aurillac Mairie,AURILLAC,FR07017,1997-02-14T00:00:00+01:00,2016-01-06T00:00:00+01:00,44.93133,2.445168,urn:ogc:def:crs:EPSG::4326,640,http://dd.eionet.europa.eu/vocabulary/uom/length/m,http://dd.eionet.europa.eu/vocabulary/aq/areaclassification/urban,FR.LCSQA-INERIS.AQ/NET-FR071A
197,197,STA-FR07018,STA-FR07018,FR.LCSQA-INERIS.AQ,1,FR07018,Vals pres le Puy,VALS-PRES-LE-PUY,FR07018,1997-07-01T00:00:00+01:00,2016-01-06T00:00:00+01:00,45.030003,3.876,urn:ogc:def:crs:EPSG::4326,650,http://dd.eionet.europa.eu/vocabulary/uom/length/m,http://dd.eionet.europa.eu/vocabulary/aq/areaclassification/suburban,FR.LCSQA-INERIS.AQ/NET-FR071A
198,198,STA-FR07020,STA-FR07020,FR.LCSQA-INERIS.AQ,2,FR07020,Busset,BUSSET,FR07020,2001-06-12T00:00:00+01:00,2018-12-30T00:00:00+01:00,46.06028,3.515139,urn:ogc:def:crs:EPSG::4326,495,http://dd.eionet.europa.eu/vocabulary/uom/length/m,http://dd.eionet.europa.eu/vocabulary/aq/areaclassification/rural-regional,FR.LCSQA-INERIS.AQ/NET-FR071A
199,199,STA-FR07022,STA-FR07022,FR.LCSQA-INERIS.AQ,3,FR07022,Paray le Fresil,PARAY-LE-FRÉSIL,FR07022,2002-05-30T00:00:00+01:00,,46.652668,3.600667,urn:ogc:def:crs:EPSG::4326,235,http://dd.eionet.europa.eu/vocabulary/uom/length/m,http://dd.eionet.europa.eu/vocabulary/aq/areaclassification/rural-regional,FR.LCSQA-INERIS.AQ/NET-FR071A
200,200,STA-FR07023,STA-FR07023,FR.LCSQA-INERIS.AQ,1,FR07023,Besse et St Anastais,BESSE-ET-SAINT-ANASTAISE,FR07023,2003-07-08T00:00:00+01:00,2013-12-14T00:00:00+01:00,45.51039,2.930361,urn:ogc:def:crs:EPSG::4326,1050,http://dd.eionet.europa.eu/vocabulary/uom/length/m,http://dd.eionet.europa.eu/vocabulary/aq/areaclassification/rural-regional,FR.LCSQA-INERIS.AQ/NET-FR071A
201,201,STA-FR07028,STA-FR07028,FR.LCSQA-INERIS.AQ,3,FR07028,Les Ancizes,LES ANCIZES-COMPS,FR07028,2003-11-15T00:00:00+01:00,,45.929333,2.829806,urn:ogc:def:crs:EPSG::4326,720,http://dd.eionet.europa.eu/vocabulary/uom/length/m,http://dd.eionet.europa.eu/vocabulary/aq/areaclassification/suburban,FR.LCSQA-INERIS.AQ/NET-FR071A
202,202,STA-FR07029,STA-FR07029,FR.LCSQA-INERIS.AQ,2,FR07029,Sembadel,SEMBADEL,FR07029,2004-07-09T00:00:00+01:00,2017-01-02T00:00:00+01:00,45.274727,3.687917,urn:ogc:def:crs:EPSG::4326,1060,http://dd.eionet.europa.eu/vocabulary/uom/length/m,http://dd.eionet.europa.eu/vocabulary/aq/areaclassification/rural-regional,FR.LCSQA-INERIS.AQ/NET-FR071A
203,203,STA-FR07031,STA-FR07031,FR.LCSQA-INERIS.AQ,4,FR07031,Rageade,RAGEADE,FR07031,2004-04-02T00:00:00+01:00,,45.10472,3.277361,urn:ogc:def:crs:EPSG::4326,1040,http://dd.eionet.europa.eu/vocabulary/uom/length/m,http://dd.eionet.europa.eu/vocabulary/aq/areaclassification/rural-regional,FR.LCSQA-INERIS.AQ/NET-FR071A
204,204,STA-FR07032,STA-FR07032,FR.LCSQA-INERIS.AQ,2,FR07032,Riom,RIOM,FR07032,2004-09-15T00:00:00+01:00,2019-01-03T00:00:00+01:00,45.894196,3.115056,urn:ogc:def:crs:EPSG::4326,350,http://dd.eionet.europa.eu/vocabulary/uom/length/m,http://dd.eionet.europa.eu/vocabulary/aq/areaclassification/urban,FR.LCSQA-INERIS.AQ/NET-FR071A
205,205,STA-FR07034,STA-FR07034,FR.LCSQA-INERIS.AQ,2,FR07034,Clermont-Esplanade Gare,CLERMONT-FERRAND,FR07034,2005-05-07T00:00:00+01:00,,45.775696,3.09625,urn:ogc:def:crs:EPSG::4326,360,http://dd.eionet.europa.eu/vocabulary/uom/length/m,http://dd.eionet.europa.eu/vocabulary/aq/areaclassification/urban,FR.LCSQA-INERIS.AQ/NET-FR071A
206,206,STA-FR07038,STA-FR07038,FR.LCSQA-INERIS.AQ,1,FR07038,Issoire Associations,ISSOIRE,FR07038,2007-09-18T00:00:00+01:00,2013-06-27T00:00:00+01:00,45.544533,3.248278,urn:ogc:def:crs:EPSG::4326,405,http://dd.eionet.europa.eu/vocabulary/uom/length/m,http://dd.eionet.europa.eu/vocabulary/aq/areaclassification/urban,FR.LCSQA-INERIS.AQ/NET-FR071A
207,207,STA-FR07039,STA-FR07039,FR.LCSQA-INERIS.AQ,2,FR07039,Chamalières Europe,CHAMALIÈRES,FR07039,2009-03-05T00:00:00+01:00,,45.774727,3.062978,urn:ogc:def:crs:EPSG::4326,412,http://dd.eionet.europa.eu/vocabulary/uom/length/m,http://dd.eionet.europa.eu/vocabulary/aq/areaclassification/urban,FR.LCSQA-INERIS.AQ/NET-FR071A
208,208,STA-FR07043,STA-FR07043,FR.LCSQA-INERIS.AQ,1,FR07043,Le Puy Coiffier,LE PUY-EN-VELAY,FR07043,2012-03-02T00:00:00+01:00,2015-01-16T00:00:00+01:00,45.04286,3.888806,urn:ogc:def:crs:EPSG::4326,628,http://dd.eionet.europa.eu/vocabulary/uom/length/m,http://dd.eionet.europa.eu/vocabulary/aq/areaclassification/urban,FR.LCSQA-INERIS.AQ/NET-FR071A
209,209,STA-FR07045,STA-FR07045,FR.LCSQA-INERIS.AQ,2,FR07045,Issoire Ecole Centre,ISSOIRE,FR07045,2013-06-26T00:00:00+01:00,2017-12-21T00:00:00+01:00,45.54542,3.248247,urn:ogc:def:crs:EPSG::4326,390,http://dd.eionet.europa.eu/vocabulary/uom/length/m,http://dd.eionet.europa.eu/vocabulary/aq/areaclassification/urban,FR.LCSQA-INERIS.AQ/NET-FR071A
210,210,STA-FR07047,STA-FR07047,FR.LCSQA-INERIS.AQ,1,FR07047,Bessay-sur-Allier,BESSAY-SUR-ALLIER,FR07047,2013-12-18T00:00:00+01:00,2015-01-07T00:00:00+01:00,46.4409,3.361061,urn:ogc:def:crs:EPSG::4326,211,http://dd.eionet.europa.eu/vocabulary/uom/length/m,http://dd.eionet.europa.eu/vocabulary/aq/areaclassification/suburban,FR.LCSQA-INERIS.AQ/NET-FR071A
211,211,STA-FR07048,STA-FR07048,FR.LCSQA-INERIS.AQ,2,FR07048,Villeneuve sur Allier,VILLENEUVE-SUR-ALLIER,FR07048,2014-01-01T00:00:00+01:00,2021-01-08T00:00:00+01:00,46.659046,3.249247,urn:ogc:def:crs:EPSG::4326,208,http://dd.eionet.europa.eu/vocabulary/uom/length/m,http://dd.eionet.europa.eu/vocabulary/aq/areaclassification/rural-nearcity,FR.LCSQA-INERIS.AQ/NET-FR071A
212,212,STA-FR07049,STA-FR07049,FR.LCSQA-INERIS.AQ,1,FR07049,MOULINS,MOULINS,FR07049,2014-04-29T00:00:00+01:00,2016-12-14T00:00:00+01:00,46.56187,3.331089,urn:ogc:def:crs:EPSG::4326,214,http://dd.eionet.europa.eu/vocabulary/uom/length/m,http://dd.eionet.europa.eu/vocabulary/aq/areaclassification/urban,FR.LCSQA-INERIS.AQ/NET-FR071A
213,213,STA-FR07051,STA-FR07051,FR.LCSQA-INERIS.AQ,2,FR07051,Beaulieu,CLERMONT-FERRAND,FR07051,2015-03-02T00:00:00+01:00,,45.769,3.155,urn:ogc:def:crs:EPSG::4326,344,http://dd.eionet.europa.eu/vocabulary/uom/length/m,http://dd.eionet.europa.eu/vocabulary/aq/areaclassification/suburban,FR.LCSQA-INERIS.AQ/NET-FR071A
214,214,STA-FR07052,STA-FR07052,FR.LCSQA-INERIS.AQ,3,FR07052,Aurillac-Lagarde,AURILLAC,FR07052,2015-12-28T00:00:00+01:00,,44.92008,2.441082,urn:ogc:def:crs:EPSG::4326,640,http://dd.eionet.europa.eu/vocabulary/uom/length/m,http://dd.eionet.europa.eu/vocabulary/aq/areaclassification/urban,FR.LCSQA-INERIS.AQ/NET-FR071A
215,215,STA-FR07053,STA-FR07053,FR.LCSQA-INERIS.AQ,2,FR07053,Edouard Michelin,CLERMONT-FERRAND,FR07053,2015-11-06T00:00:00+01:00,,45.780434,3.111592,urn:ogc:def:crs:EPSG::4326,354,http://dd.eionet.europa.eu/vocabulary/uom/length/m,http://dd.eionet.europa.eu/vocabulary/aq/areaclassification/urban,FR.LCSQA-INERIS.AQ/NET-FR071A
216,216,STA-FR07054,STA-FR07054,FR.LCSQA-INERIS.AQ,3,FR07054,Le Puy-Causans,LE PUY-EN-VELAY,FR07054,2015-02-17T00:00:00+01:00,,45.039,3.887001,urn:ogc:def:crs:EPSG::4326,629,http://dd.eionet.europa.eu/vocabulary/uom/length/m,http://dd.eionet.europa.eu/vocabulary/aq/areaclassification/urban,FR.LCSQA-INERIS.AQ/NET-FR071A
217,217,STA-FR07055,STA-FR07055,FR.LCSQA-INERIS.AQ,2,FR07055,Fay-sur-Lignon,FAY-SUR-LIGNON,FR07055,2016-01-01T00:00:00+01:00,2017-01-07T00:00:00+01:00,44.984444,4.2260833,urn:ogc:def:crs:EPSG::4326,1150,http://dd.eionet.europa.eu/vocabulary/uom/length/m,http://dd.eionet.europa.eu/vocabulary/aq/areaclassification/rural-regional,FR.LCSQA-INERIS.AQ/NET-FR071A
218,218,STA-FR07056,STA-FR07056,FR.LCSQA-INERIS.AQ,3,FR07056,Pays du Mezenc,FAY-SUR-LIGNON,FR07056,2016-09-08T00:00:00+01:00,,44.98377,4.226006,urn:ogc:def:crs:EPSG::4326,1191,http://dd.eionet.europa.eu/vocabulary/uom/length/m,http://dd.eionet.europa.eu/vocabulary/aq/areaclassification/rural-regional,FR.LCSQA-INERIS.AQ/NET-FR071A
219,219,STA-FR07057,STA-FR07057,FR.LCSQA-INERIS.AQ,3,FR07057,Moulins Centre,MOULINS,FR07057,2016-12-13T00:00:00+01:00,,46.561974,3.3406389,urn:ogc:def:crs:EPSG::4326,221,http://dd.eionet.europa.eu/vocabulary/uom/length/m,http://dd.eionet.europa.eu/vocabulary/aq/areaclassification/urban,FR.LCSQA-INERIS.AQ/NET-FR071A
220,220,STA-FR07058,STA-FR07058,FR.LCSQA-INERIS.AQ,2,FR07058,Montluçon,MONTLUÇON,FR07058,2017-01-01T00:00:00+01:00,,46.34072,2.593945,urn:ogc:def:crs:EPSG::4326,203,http://dd.eionet.europa.eu/vocabulary/uom/length/m,http://dd.eionet.europa.eu/vocabulary/aq/areaclassification/urban,FR.LCSQA-INERIS.AQ/NET-FR071A
221,221,STA-FR07059,STA-FR07059,FR.LCSQA-INERIS.AQ,2,FR07059,Vichy,VICHY,FR07059,2018-01-26T00:00:00+01:00,,46.130432,3.425694,urn:ogc:def:crs:EPSG::4326,257,http://dd.eionet.europa.eu/vocabulary/uom/length/m,http://dd.eionet.europa.eu/vocabulary/aq/areaclassification/urban,FR.LCSQA-INERIS.AQ/NET-FR071A
222,222,STA-FR07060,STA-FR07060,FR.LCSQA-INERIS.AQ,1,FR07060,Royat Périurbaine,ROYAT,FR07060,2018-01-11T00:00:00+01:00,,45.76411,3.046111,urn:ogc:def:crs:EPSG::4326,519,http://dd.eionet.europa.eu/vocabulary/uom/length/m,http://dd.eionet.europa.eu/vocabulary/aq/areaclassification/suburban,FR.LCSQA-INERIS.AQ/NET-FR071A
223,223,STA-FR07061,STA-FR07061,FR.LCSQA-INERIS.AQ,1,FR07061,Riom Périurbaine,RIOM,FR07061,2018-12-19T00:00:00+01:00,,45.89674,3.122254,urn:ogc:def:crs:EPSG::4326,329,http://dd.eionet.europa.eu/vocabulary/uom/length/m,http://dd.eionet.europa.eu/vocabulary/aq/areaclassification/suburban,FR.LCSQA-INERIS.AQ/NET-FR071A
224,224,STA-FR07202,STA-FR07202,FR.LCSQA-INERIS.AQ,2,FR07202,Stade Leclanche,CLERMONT-FERRAND,FR07202,2013-02-01T00:00:00+01:00,,45.807487,3.111111,urn:ogc:def:crs:EPSG::4326,335,http://dd.eionet.europa.eu/vocabulary/uom/length/m,http://dd.eionet.europa.eu/vocabulary/aq/areaclassification/urban,FR.LCSQA-INERIS.AQ/NET-FR071A
225,225,STA-FR07203,STA-FR07203,FR.LCSQA-INERIS.AQ,1,FR07203,La Monnerie,LA MONNERIE-LE-MONTEL,FR07203,2014-01-03T00:00:00+01:00,2017-01-01T00:00:00+01:00,45.86876,3.60328,urn:ogc:def:crs:EPSG::4326,579,http://dd.eionet.europa.eu/vocabulary/uom/length/m,http://dd.eionet.europa.eu/vocabulary/aq/areaclassification/rural-nearcity,FR.LCSQA-INERIS.AQ/NET-FR071A
226,226,STA-FR08003,STA-FR08003,FR.LCSQA-INERIS.AQ,2,FR08003,Montpellier Chaptal,MONTPELLIER,FR08003,1986-01-01T00:00:00+01:00,,43.6113,3.86626,urn:ogc:def:crs:EPSG::4326,42,http://dd.eionet.europa.eu/vocabulary/uom/length/m,http://dd.eionet.europa.eu/vocabulary/aq/areaclassification/urban,FR.LCSQA-INERIS.AQ/NET-FR068A
227,227,STA-FR08004,STA-FR08004,FR.LCSQA-INERIS.AQ,2,FR08004,Montpellier St Denis,MONTPELLIER,FR08004,1986-01-01T00:00:00+01:00,,43.6051,3.87464,urn:ogc:def:crs:EPSG::4326,55,http://dd.eionet.europa.eu/vocabulary/uom/length/m,http://dd.eionet.europa.eu/vocabulary/aq/areaclassification/urban,FR.LCSQA-INERIS.AQ/NET-FR068A
228,228,STA-FR08016,STA-FR08016,FR.LCSQA-INERIS.AQ,2,FR08016,Montpellier Prés d'Arènes,MONTPELLIER,FR08016,1998-01-01T00:00:00+01:00,,43.5915,3.88681,urn:ogc:def:crs:EPSG::4326,23,http://dd.eionet.europa.eu/vocabulary/uom/length/m,http://dd.eionet.europa.eu/vocabulary/aq/areaclassification/urban,FR.LCSQA-INERIS.AQ/NET-FR068A
229,229,STA-FR08017,STA-FR08017,FR.LCSQA-INERIS.AQ,2,FR08017,Montpellier Périurbaine Sud (Lattes),LATTES,FR08017,1999-08-01T00:00:00+01:00,,43.5705,3.9118,urn:ogc:def:crs:EPSG::4326,6,http://dd.eionet.europa.eu/vocabulary/uom/length/m,http://dd.eionet.europa.eu/vocabulary/aq/areaclassification/suburban,FR.LCSQA-INERIS.AQ/NET-FR068A
230,230,STA-FR08018,STA-FR08018,FR.LCSQA-INERIS.AQ,2,FR08018,Montpellier St Gely,SAINT-GÉLY-DU-FESC,FR08018,2000-04-26T00:00:00+01:00,,43.6926,3.80021,urn:ogc:def:crs:EPSG::4326,128,http://dd.eionet.europa.eu/vocabulary/uom/length/m,http://dd.eionet.europa.eu/vocabulary/aq/areaclassification/suburban,FR.LCSQA-INERIS.AQ/NET-FR068A
231,231,STA-FR08020,STA-FR08020,FR.LCSQA-INERIS.AQ,2,FR08020,Lunel Viel,LUNEL-VIEL,FR08020,1999-11-10T00:00:00+01:00,,43.6758,4.08838,urn:ogc:def:crs:EPSG::4326,15,http://dd.eionet.europa.eu/vocabulary/uom/length/m,http://dd.eionet.europa.eu/vocabulary/aq/areaclassification/suburban,FR.LCSQA-INERIS.AQ/NET-FR068A
232,232,STA-FR08022,STA-FR08022,FR.LCSQA-INERIS.AQ,2,FR08022,Agathois-piscénois,AGDE,FR08022,2001-07-06T00:00:00+01:00,,43.2875,3.50484,urn:ogc:def:crs:EPSG::4326,19,http://dd.eionet.europa.eu/vocabulary/uom/length/m,http://dd.eionet.europa.eu/vocabulary/aq/areaclassification/suburban,FR.LCSQA-INERIS.AQ/NET-FR068A
233,233,STA-FR08023,STA-FR08023,FR.LCSQA-INERIS.AQ,2,FR08023,Biterrois-Narbonnais,CORNEILHAN,FR08023,2003-05-20T00:00:00+01:00,,43.4068,3.18878,urn:ogc:def:crs:EPSG::4326,76,http://dd.eionet.europa.eu/vocabulary/uom/length/m,http://dd.eionet.europa.eu/vocabulary/aq/areaclassification/rural-regional,FR.LCSQA-INERIS.AQ/NET-FR068A
234,234,STA-FR08025,STA-FR08025,FR.LCSQA-INERIS.AQ,2,FR08025,Haut-Languedoc,FRAISSE-SUR-AGOUT,FR08025,2003-05-01T00:00:00+01:00,2018-10-07T00:00:00+01:00,43.5944,2.80296,urn:ogc:def:crs:EPSG::4326,920,http://dd.eionet.europa.eu/vocabulary/uom/length/m,http://dd.eionet.europa.eu/vocabulary/aq/areaclassification/rural-regional,FR.LCSQA-INERIS.AQ/NET-FR068A
235,235,STA-FR08026,STA-FR08026,FR.LCSQA-INERIS.AQ,2,FR08026,MEZE TRAFIC,MEZE,FR08026,2014-01-01T00:00:00+01:00,2018-01-01T00:00:00+01:00,43.4282,3.60356,urn:ogc:def:crs:EPSG::4326,40,http://dd.eionet.europa.eu/vocabulary/uom/length/m,http://dd.eionet.europa.eu/vocabulary/aq/areaclassification/suburban,FR.LCSQA-INERIS.AQ/NET-FR068A
236,236,STA-FR08030,STA-FR08030,FR.LCSQA-INERIS.AQ,2,FR08030,Pompignane,MONTPELLIER,FR08030,2008-01-16T00:00:00+01:00,,43.6096,3.89878,urn:ogc:def:crs:EPSG::4326,17,http://dd.eionet.europa.eu/vocabulary/uom/length/m,http://dd.eionet.europa.eu/vocabulary/aq/areaclassification/urban,FR.LCSQA-INERIS.AQ/NET-FR068A
237,237,STA-FR08204,STA-FR08204,FR.LCSQA-INERIS.AQ,2,FR08204,Gard Rhodanien1,TARASCON,FR08204,1992-02-27T00:00:00+01:00,2019-07-04T00:00:00+01:00,43.8292,4.64295,urn:ogc:def:crs:EPSG::4326,13,http://dd.eionet.europa.eu/vocabulary/uom/length/m,http://dd.eionet.europa.eu/vocabulary/aq/areaclassification/rural-nearcity,FR.LCSQA-INERIS.AQ/NET-FR068A
238,238,STA-FR08209,STA-FR08209,FR.LCSQA-INERIS.AQ,2,FR08209,Gard Rhodanien2,SAZE,FR08209,1994-03-10T00:00:00+01:00,,43.9426,4.67958,urn:ogc:def:crs:EPSG::4326,87,http://dd.eionet.europa.eu/vocabulary/uom/length/m,http://dd.eionet.europa.eu/vocabulary/aq/areaclassification/rural-nearcity,FR.LCSQA-INERIS.AQ/NET-FR068A
239,239,STA-FR08252,STA-FR08252,FR.LCSQA-INERIS.AQ,2,FR08252,GARNOR03,SAINT-LAURENT-DES-ARBRES,FR08252,2012-08-02T00:00:00+01:00,2021-01-19T00:00:00+01:00,44.054474,4.697408,urn:ogc:def:crs:EPSG::4326,86,http://dd.eionet.europa.eu/vocabulary/uom/length/m,http://dd.eionet.europa.eu/vocabulary/aq/areaclassification/suburban,FR.LCSQA-INERIS.AQ/NET-FR068A
240,240,STA-FR08508,STA-FR08508,FR.LCSQA-INERIS.AQ,2,FR08508,Vergèze,VERGÈZE,FR08508,2011-01-01T00:00:00+01:00,2020-01-01T00:00:00+01:00,43.724606,4.246406,urn:ogc:def:crs:EPSG::4326,12,http://dd.eionet.europa.eu/vocabulary/uom/length/m,http://dd.eionet.europa.eu/vocabulary/aq/areaclassification/rural-regional,FR.LCSQA-INERIS.AQ/NET-FR068A
241,241,STA-FR08614,STA-FR08614,FR.LCSQA-INERIS.AQ,2,FR08614,Nimes Gauzy,NÎMES,FR08614,1997-12-23T00:00:00+01:00,,43.8344,4.3744,urn:ogc:def:crs:EPSG::4326,42,http://dd.eionet.europa.eu/vocabulary/uom/length/m,http://dd.eionet.europa.eu/vocabulary/aq/areaclassification/urban,FR.LCSQA-INERIS.AQ/NET-FR068A
242,242,STA-FR08616,STA-FR08616,FR.LCSQA-INERIS.AQ,2,FR08616,Nimes Planas,NÎMES,FR08616,1998-01-01T00:00:00+01:00,,43.8299,4.36199,urn:ogc:def:crs:EPSG::4326,40,http://dd.eionet.europa.eu/vocabulary/uom/length/m,http://dd.eionet.europa.eu/vocabulary/aq/areaclassification/urban,FR.LCSQA-INERIS.AQ/NET-FR068A
243,243,STA-FR08617,STA-FR08617,FR.LCSQA-INERIS.AQ,2,FR08617,Nimes La Calmette,LA CALMETTE,FR08617,2004-06-04T00:00:00+01:00,,43.9254,4.26581,urn:ogc:def:crs:EPSG::4326,76,http://dd.eionet.europa.eu/vocabulary/uom/length/m,http://dd.eionet.europa.eu/vocabulary/aq/areaclassification/suburban,FR.LCSQA-INERIS.AQ/NET-FR068A
244,244,STA-FR08618,STA-FR08618,FR.LCSQA-INERIS.AQ,2,FR08618,Alès Cévennes,SAINT-PRIVAT-DES-VIEUX,FR08618,2007-01-01T00:00:00+01:00,2017-12-01T00:00:00+01:00,44.1424,4.13832,urn:ogc:def:crs:EPSG::4326,173,http://dd.eionet.europa.eu/vocabulary/uom/length/m,http://dd.eionet.europa.eu/vocabulary/aq/areaclassification/suburban,FR.LCSQA-INERIS.AQ/NET-FR068A
245,245,STA-FR08712,STA-FR08712,FR.LCSQA-INERIS.AQ,2,FR08712,Perpignan St Esteve,SAINT-ESTÈVE,FR08712,1998-10-06T00:00:00+01:00,,42.7198,2.83988,urn:ogc:def:crs:EPSG::4326,60,http://dd.eionet.europa.eu/vocabulary/uom/length/m,http://dd.eionet.europa.eu/vocabulary/aq/areaclassification/suburban,FR.LCSQA-INERIS.AQ/NET-FR068A
246,246,STA-FR08713,STA-FR08713,FR.LCSQA-INERIS.AQ,2,FR08713,Perpignan Rigaud,PERPIGNAN,FR08713,1999-01-01T00:00:00+01:00,2022-04-14T00:00:00+01:00,42.6835,2.90351,urn:ogc:def:crs:EPSG::4326,55,http://dd.eionet.europa.eu/vocabulary/uom/length/m,http://dd.eionet.europa.eu/vocabulary/aq/areaclassification/urban,FR.LCSQA-INERIS.AQ/NET-FR068A
247,247,STA-FR08714,STA-FR08714,FR.LCSQA-INERIS.AQ,2,FR08714,Perpignan Les Carmes,PERPIGNAN,FR08714,1999-04-20T00:00:00+01:00,,42.6955,2.90053,urn:ogc:def:crs:EPSG::4326,48,http://dd.eionet.europa.eu/vocabulary/uom/length/m,http://dd.eionet.europa.eu/vocabulary/aq/areaclassification/urban,FR.LCSQA-INERIS.AQ/NET-FR068A
248,248,STA-FR09003,STA-FR09003,FR.LCSQA-INERIS.AQ,3,FR09003,place de VERDUN,LA ROCHELLE,FR09003,1992-01-01T00:00:00+01:00,,46.162556,-1.153603,urn:ogc:def:crs:EPSG::4326,10,http://dd.eionet.europa.eu/vocabulary/uom/length/m,http://dd.eionet.europa.eu/vocabulary/aq/areaclassification/urban,FR.LCSQA-INERIS.AQ/NET-FR058A
249,249,STA-FR09008,STA-FR09008,FR.LCSQA-INERIS.AQ,3,FR09008,Aytré,AYTRÉ,FR09008,1994-11-01T00:00:00+01:00,,46.135155,-1.117042,urn:ogc:def:crs:EPSG::4326,10,http://dd.eionet.europa.eu/vocabulary/uom/length/m,http://dd.eionet.europa.eu/vocabulary/aq/areaclassification/suburban,FR.LCSQA-INERIS.AQ/NET-FR058A
250,250,STA-FR09009,STA-FR09009,FR.LCSQA-INERIS.AQ,1,FR09009,Place du Marche,POITIERS,FR09009,1995-09-01T00:00:00+01:00,2014-01-01T00:00:00+01:00,46.58305,0.344889,urn:ogc:def:crs:EPSG::4326,112,http://dd.eionet.europa.eu/vocabulary/uom/length/m,http://dd.eionet.europa.eu/vocabulary/aq/areaclassification/urban,FR.LCSQA-INERIS.AQ/NET-FR058A
251,251,STA-FR09010,STA-FR09010,FR.LCSQA-INERIS.AQ,1,FR09010,Chasseneuil,CHASSENEUIL-DU-POITOU,FR09010,1995-10-01T00:00:00+01:00,2013-01-09T00:00:00+01:00,46.655334,0.376236,urn:ogc:def:crs:EPSG::4326,74,http://dd.eionet.europa.eu/vocabulary/uom/length/m,http://dd.eionet.europa.eu/vocabulary/aq/areaclassification/suburban,FR.LCSQA-INERIS.AQ/NET-FR058A
252,252,STA-FR09015,STA-FR09015,FR.LCSQA-INERIS.AQ,5,FR09015,Les Couronneries,POITIERS,FR09015,1997-08-06T00:00:00+01:00,,46.586918,0.358583,urn:ogc:def:crs:EPSG::4326,119,http://dd.eionet.europa.eu/vocabulary/uom/length/m,http://dd.eionet.europa.eu/vocabulary/aq/areaclassification/urban,FR.LCSQA-INERIS.AQ/NET-FR058A
253,253,STA-FR09016,STA-FR09016,FR.LCSQA-INERIS.AQ,2,FR09016,La Couronne,LA COURONNE,FR09016,1997-09-11T00:00:00+01:00,2020-01-14T00:00:00+01:00,45.60882,0.099722,urn:ogc:def:crs:EPSG::4326,51,http://dd.eionet.europa.eu/vocabulary/uom/length/m,http://dd.eionet.europa.eu/vocabulary/aq/areaclassification/suburban,FR.LCSQA-INERIS.AQ/NET-FR058A
254,254,STA-FR09017,STA-FR09017,FR.LCSQA-INERIS.AQ,2,FR09017,COGNAC,COGNAC,FR09017,1997-12-04T00:00:00+01:00,2019-06-13T00:00:00+01:00,45.694725,-0.323361,urn:ogc:def:crs:EPSG::4326,29,http://dd.eionet.europa.eu/vocabulary/uom/length/m,http://dd.eionet.europa.eu/vocabulary/aq/areaclassification/urban,FR.LCSQA-INERIS.AQ/NET-FR058A
255,255,STA-FR09019,STA-FR09019,FR.LCSQA-INERIS.AQ,2,FR09019,Niort Ferry,NIORT,FR09019,1998-02-19T00:00:00+01:00,2020-01-22T00:00:00+01:00,46.329586,-0.458889,urn:ogc:def:crs:EPSG::4326,48,http://dd.eionet.europa.eu/vocabulary/uom/length/m,http://dd.eionet.europa.eu/vocabulary/aq/areaclassification/urban,FR.LCSQA-INERIS.AQ/NET-FR058A
256,256,STA-FR09033,STA-FR09033,FR.LCSQA-INERIS.AQ,1,FR09033,Rivedoux plage,RIVEDOUX-PLAGE,FR09033,2013-01-22T00:00:00+01:00,2014-01-01T00:00:00+01:00,46.157883,-1.267922,urn:ogc:def:crs:EPSG::4326,10,http://dd.eionet.europa.eu/vocabulary/uom/length/m,http://dd.eionet.europa.eu/vocabulary/aq/areaclassification/urban,FR.LCSQA-INERIS.AQ/NET-FR058A
257,257,STA-FR09103,STA-FR09103,FR.LCSQA-INERIS.AQ,3,FR09103,Square Pablo Casals,ANGOULÊME,FR09103,2004-10-25T00:00:00+01:00,,45.647415,0.167167,urn:ogc:def:crs:EPSG::4326,83,http://dd.eionet.europa.eu/vocabulary/uom/length/m,http://dd.eionet.europa.eu/vocabulary/aq/areaclassification/urban,FR.LCSQA-INERIS.AQ/NET-FR058A
258,258,STA-FR09104,STA-FR09104,FR.LCSQA-INERIS.AQ,1,FR09104,Angoulême trafic,ANGOULÊME,FR09104,2012-02-21T00:00:00+01:00,2013-03-05T00:00:00+01:00,45.64578,0.159472,urn:ogc:def:crs:EPSG::4326,60,http://dd.eionet.europa.eu/vocabulary/uom/length/m,http://dd.eionet.europa.eu/vocabulary/aq/areaclassification/urban,FR.LCSQA-INERIS.AQ/NET-FR058A
259,259,STA-FR09105,STA-FR09105,FR.LCSQA-INERIS.AQ,1,FR09105,Roumazières trafic,ROUMAZIERES-LOUBERT,FR09105,2012-12-20T00:00:00+01:00,2014-12-16T00:00:00+01:00,45.886185,0.581483,urn:ogc:def:crs:EPSG::4326,217,http://dd.eionet.europa.eu/vocabulary/uom/length/m,http://dd.eionet.europa.eu/vocabulary/aq/areaclassification/urban,FR.LCSQA-INERIS.AQ/NET-FR058A
260,260,STA-FR09106,STA-FR09106,FR.LCSQA-INERIS.AQ,3,FR09106,ANGOULEME-GAMBETTA,ANGOULÊME,FR09106,2014-12-18T00:00:00+01:00,,45.65145,0.16236667,urn:ogc:def:crs:EPSG::4326,64,http://dd.eionet.europa.eu/vocabulary/uom/length/m,http://dd.eionet.europa.eu/vocabulary/aq/areaclassification/urban,FR.LCSQA-INERIS.AQ/NET-FR058A
261,261,STA-FR09107,STA-FR09107,FR.LCSQA-INERIS.AQ,1,FR09107,PGOG_4_00,COGNAC,FR09107,2013-01-10T00:00:00+01:00,2017-01-01T00:00:00+01:00,45.68695,-0.323869,urn:ogc:def:crs:EPSG::4326,353,http://dd.eionet.europa.eu/vocabulary/uom/length/m,http://dd.eionet.europa.eu/vocabulary/aq/areaclassification/urban,FR.LCSQA-INERIS.AQ/NET-FR058A
262,262,STA-FR09202,STA-FR09202,FR.LCSQA-INERIS.AQ,2,FR09202,La Rochelle centre - rue St-Louis,LA ROCHELLE,FR09202,2016-01-15T00:00:00+01:00,2017-02-16T00:00:00+01:00,46.159,-1.145999,urn:ogc:def:crs:EPSG::4326,10,http://dd.eionet.europa.eu/vocabulary/uom/length/m,http://dd.eionet.europa.eu/vocabulary/aq/areaclassification/urban,FR.LCSQA-INERIS.AQ/NET-FR058A
263,263,STA-FR09203,STA-FR09203,FR.LCSQA-INERIS.AQ,4,FR09203,La Pallice3 LR,LA ROCHELLE,FR09203,2012-01-19T00:00:00+01:00,,46.16161,-1.211203,urn:ogc:def:crs:EPSG::4326,10,http://dd.eionet.europa.eu/vocabulary/uom/length/m,http://dd.eionet.europa.eu/vocabulary/aq/areaclassification/urban,FR.LCSQA-INERIS.AQ/NET-FR058A
264,264,STA-FR09204,STA-FR09204,FR.LCSQA-INERIS.AQ,1,FR09204,La_Rochelle_trafic_3,LA ROCHELLE,FR09204,2013-01-03T00:00:00+01:00,2014-01-08T00:00:00+01:00,46.16355,-1.146367,urn:ogc:def:crs:EPSG::4326,10,http://dd.eionet.europa.eu/vocabulary/uom/length/m,http://dd.eionet.europa.eu/vocabulary/aq/areaclassification/urban,FR.LCSQA-INERIS.AQ/NET-FR058A
265,265,STA-FR09205,STA-FR09205,FR.LCSQA-INERIS.AQ,1,FR09205,La Rochelle GARE,LA ROCHELLE,FR09205,2014-01-07T00:00:00+01:00,2014-12-23T00:00:00+01:00,46.15372,-1.145611,urn:ogc:def:crs:EPSG::4326,3,http://dd.eionet.europa.eu/vocabulary/uom/length/m,http://dd.eionet.europa.eu/vocabulary/aq/areaclassification/urban,FR.LCSQA-INERIS.AQ/NET-FR058A
266,266,STA-FR09206,STA-FR09206,FR.LCSQA-INERIS.AQ,1,FR09206,La Rochelle Trafic,LA ROCHELLE,FR09206,2014-01-22T00:00:00+01:00,2015-12-24T00:00:00+01:00,46.158,-1.155999,urn:ogc:def:crs:EPSG::4326,4,http://dd.eionet.europa.eu/vocabulary/uom/length/m,http://dd.eionet.europa.eu/vocabulary/aq/areaclassification/urban,FR.LCSQA-INERIS.AQ/NET-FR058A
267,267,STA-FR09207,STA-FR09207,FR.LCSQA-INERIS.AQ,1,FR09207,MARANS_D137,MARANS,FR09207,2015-01-01T00:00:00+01:00,2015-12-30T00:00:00+01:00,46.309624,-0.991908,urn:ogc:def:crs:EPSG::4326,260,http://dd.eionet.europa.eu/vocabulary/uom/length/m,http://dd.eionet.europa.eu/vocabulary/aq/areaclassification/urban,FR.LCSQA-INERIS.AQ/NET-FR058A
268,268,STA-FR09301,STA-FR09301,FR.LCSQA-INERIS.AQ,2,FR09301,AIRVAULT 2,AIRVAULT,FR09301,2008-01-10T00:00:00+01:00,2021-10-08T00:00:00+01:00,46.824368,-0.135461,urn:ogc:def:crs:EPSG::4326,120,http://dd.eionet.europa.eu/vocabulary/uom/length/m,http://dd.eionet.europa.eu/vocabulary/aq/areaclassification/suburban,FR.LCSQA-INERIS.AQ/NET-FR058A
269,269,STA-FR09302,STA-FR09302,FR.LCSQA-INERIS.AQ,3,FR09302,Zoodyssée Chizé,VILLIERS-EN-BOIS,FR09302,2009-05-06T00:00:00+01:00,,46.143173,-0.396042,urn:ogc:def:crs:EPSG::4326,93,http://dd.eionet.europa.eu/vocabulary/uom/length/m,http://dd.eionet.europa.eu/vocabulary/aq/areaclassification/rural-regional,FR.LCSQA-INERIS.AQ/NET-FR058A
270,270,STA-FR09303,STA-FR09303,FR.LCSQA-INERIS.AQ,2,FR09303,Niort Venise,NIORT,FR09303,2019-12-10T00:00:00+01:00,,46.320015,-0.482888,urn:ogc:def:crs:EPSG::4326,19,http://dd.eionet.europa.eu/vocabulary/uom/length/m,http://dd.eionet.europa.eu/vocabulary/aq/areaclassification/urban,FR.LCSQA-INERIS.AQ/NET-FR058A
271,271,STA-FR09304,STA-FR09304,FR.LCSQA-INERIS.AQ,2,FR09304,AIRVAULT - Stade Laillé,AIRVAULT,FR09304,2021-02-09T00:00:00+01:00,,46.823803,-0.135608,urn:ogc:def:crs:EPSG::4326,100,http://dd.eionet.europa.eu/vocabulary/uom/length/m,http://dd.eionet.europa.eu/vocabulary/aq/areaclassification/suburban,FR.LCSQA-INERIS.AQ/NET-FR058A
272,272,STA-FR09305,STA-FR09305,FR.LCSQA-INERIS.AQ,1,FR09305,Niort - Tassigny,NIORT,FR09305,2022-01-01T00:00:00+01:00,,46.33388,-0.471856,urn:ogc:def:crs:EPSG::4326,23,http://dd.eionet.europa.eu/vocabulary/uom/length/m,http://dd.eionet.europa.eu/vocabulary/aq/areaclassification/urban,FR.LCSQA-INERIS.AQ/NET-FR058A
273,273,STA-FR09399,STA-FR09399,FR.LCSQA-INERIS.AQ,2,FR09399,Niort Trafic 6,NIORT,FR09399,2010-03-10T00:00:00+01:00,2021-03-20T00:00:00+01:00,46.321976,-0.4664312,urn:ogc:def:crs:EPSG::4326,28,http://dd.eionet.europa.eu/vocabulary/uom/length/m,http://dd.eionet.europa.eu/vocabulary/aq/areaclassification/urban,FR.LCSQA-INERIS.AQ/NET-FR058A
274,274,STA-FR09402,STA-FR09402,FR.LCSQA-INERIS.AQ,2,FR09402,Avenue de Libération,POITIERS,FR09402,2012-07-19T00:00:00+01:00,2018-12-12T00:00:00+01:00,46.570004,0.323575,urn:ogc:def:crs:EPSG::4326,111,http://dd.eionet.europa.eu/vocabulary/uom/length/m,http://dd.eionet.europa.eu/vocabulary/aq/areaclassification/urban,FR.LCSQA-INERIS.AQ/NET-FR058A
275,275,STA-FR09403,STA-FR09403,FR.LCSQA-INERIS.AQ,2,FR09403,Poitiers-Le Nain,POITIERS,FR09403,2017-01-10T00:00:00+01:00,,46.5909,0.3404,urn:ogc:def:crs:EPSG::4326,77,http://dd.eionet.europa.eu/vocabulary/uom/length/m,http://dd.eionet.europa.eu/vocabulary/aq/areaclassification/urban,FR.LCSQA-INERIS.AQ/NET-FR058A
276,276,STA-FR09404,STA-FR09404,FR.LCSQA-INERIS.AQ,3,FR09404,Poitiers Centre  Augouard,POITIERS,FR09404,2013-07-29T00:00:00+01:00,,46.58389,0.345556,urn:ogc:def:crs:EPSG::4326,110,http://dd.eionet.europa.eu/vocabulary/uom/length/m,http://dd.eionet.europa.eu/vocabulary/aq/areaclassification/urban,FR.LCSQA-INERIS.AQ/NET-FR058A
277,277,STA-FR09405,STA-FR09405,FR.LCSQA-INERIS.AQ,2,FR09405,JULIEN LARS,SAINT-JULIEN-L'ARS,FR09405,2016-01-03T00:00:00+01:00,2017-01-05T00:00:00+01:00,46.55874,0.506875,urn:ogc:def:crs:EPSG::4326,314,http://dd.eionet.europa.eu/vocabulary/uom/length/m,http://dd.eionet.europa.eu/vocabulary/aq/areaclassification/rural-nearcity,FR.LCSQA-INERIS.AQ/NET-FR058A
278,278,STA-FR10003,STA-FR10003,FR.LCSQA-INERIS.AQ,2,FR10003,Dunkerque Port,DUNKERQUE,FR10003,1979-01-01T00:00:00+01:00,2017-11-18T00:00:00+01:00,51.05206,2.35378,urn:ogc:def:crs:EPSG::4326,5,http://dd.eionet.europa.eu/vocabulary/uom/length/m,http://dd.eionet.europa.eu/vocabulary/aq/areaclassification/suburban,FR.LCSQA-INERIS.AQ/NET-FR074A
279,279,STA-FR10004,STA-FR10004,FR.LCSQA-INERIS.AQ,2,FR10004,Malo-les-Bains,DUNKERQUE,FR10004,2007-09-17T00:00:00+01:00,,51.04858,2.42004,urn:ogc:def:crs:EPSG::4326,8,http://dd.eionet.europa.eu/vocabulary/uom/length/m,http://dd.eionet.europa.eu/vocabulary/aq/areaclassification/urban,FR.LCSQA-INERIS.AQ/NET-FR074A
280,280,STA-FR10007,STA-FR10007,FR.LCSQA-INERIS.AQ,2,FR10007,St Pol/mer Nord,DUNKERQUE,FR10007,1982-01-01T00:00:00+01:00,2017-03-09T00:00:00+01:00,51.03381,2.3352,urn:ogc:def:crs:EPSG::4326,4,http://dd.eionet.europa.eu/vocabulary/uom/length/m,http://dd.eionet.europa.eu/vocabulary/aq/areaclassification/urban,FR.LCSQA-INERIS.AQ/NET-FR074A
281,281,STA-FR10012,STA-FR10012,FR.LCSQA-INERIS.AQ,2,FR10012,Mardyck,DUNKERQUE,FR10012,1992-01-01T00:00:00+01:00,,51.01943,2.25099,urn:ogc:def:crs:EPSG::4326,1,http://dd.eionet.europa.eu/vocabulary/uom/length/m,http://dd.eionet.europa.eu/vocabulary/aq/areaclassification/suburban,FR.LCSQA-INERIS.AQ/NET-FR074A
282,282,STA-FR10013,STA-FR10013,FR.LCSQA-INERIS.AQ,2,FR10013,Loon-Plage,LOON-PLAGE,FR10013,2006-12-07T00:00:00+01:00,2018-01-04T00:00:00+01:00,50.99599,2.21466,urn:ogc:def:crs:EPSG::4326,3,http://dd.eionet.europa.eu/vocabulary/uom/length/m,http://dd.eionet.europa.eu/vocabulary/aq/areaclassification/suburban,FR.LCSQA-INERIS.AQ/NET-FR074A
283,283,STA-FR10016,STA-FR10016,FR.LCSQA-INERIS.AQ,2,FR10016,Calais Berthelot,CALAIS,FR10016,2007-12-22T00:00:00+01:00,,50.94729,1.84308,urn:ogc:def:crs:EPSG::4326,4,http://dd.eionet.europa.eu/vocabulary/uom/length/m,http://dd.eionet.europa.eu/vocabulary/aq/areaclassification/urban,FR.LCSQA-INERIS.AQ/NET-FR074A
284,284,STA-FR10017,STA-FR10017,FR.LCSQA-INERIS.AQ,1,FR10017,St Pol mer - cheminots,DUNKERQUE,FR10017,2018-01-01T00:00:00+01:00,,51.03276,2.332358,urn:ogc:def:crs:EPSG::4326,4,http://dd.eionet.europa.eu/vocabulary/uom/length/m,http://dd.eionet.europa.eu/vocabulary/aq/areaclassification/urban,FR.LCSQA-INERIS.AQ/NET-FR074A
285,285,STA-FR10025,STA-FR10025,FR.LCSQA-INERIS.AQ,2,FR10025,Sangatte,SANGATTE,FR10025,2000-11-02T00:00:00+01:00,,50.94989,1.76917,urn:ogc:def:crs:EPSG::4326,3,http://dd.eionet.europa.eu/vocabulary/uom/length/m,http://dd.eionet.europa.eu/vocabulary/aq/areaclassification/suburban,FR.LCSQA-INERIS.AQ/NET-FR074A
286,286,STA-FR10026,STA-FR10026,FR.LCSQA-INERIS.AQ,2,FR10026,Calais Parmentier,CALAIS,FR10026,2009-01-01T00:00:00+01:00,,50.9578,1.89008,urn:ogc:def:crs:EPSG::4326,3,http://dd.eionet.europa.eu/vocabulary/uom/length/m,http://dd.eionet.europa.eu/vocabulary/aq/areaclassification/urban,FR.LCSQA-INERIS.AQ/NET-FR074A
287,287,STA-FR10027,STA-FR10027,FR.LCSQA-INERIS.AQ,2,FR10027,Calais EREA,CALAIS,FR10027,2007-11-01T00:00:00+01:00,2017-08-24T00:00:00+01:00,50.96156,1.8739,urn:ogc:def:crs:EPSG::4326,4,http://dd.eionet.europa.eu/vocabulary/uom/length/m,http://dd.eionet.europa.eu/vocabulary/aq/areaclassification/suburban,FR.LCSQA-INERIS.AQ/NET-FR074A
288,288,STA-FR10028,STA-FR10028,FR.LCSQA-INERIS.AQ,2,FR10028,Gravelines PC/Drire,GRAVELINES,FR10028,2009-03-19T00:00:00+01:00,,50.98106,2.14317,urn:ogc:def:crs:EPSG::4326,3,http://dd.eionet.europa.eu/vocabulary/uom/length/m,http://dd.eionet.europa.eu/vocabulary/aq/areaclassification/suburban,FR.LCSQA-INERIS.AQ/NET-FR074A
289,289,STA-FR10029,STA-FR10029,FR.LCSQA-INERIS.AQ,2,FR10029,Cappelle la Grande,CAPPELLE-LA-GRANDE,FR10029,2008-12-17T00:00:00+01:00,,50.99594,2.36627,urn:ogc:def:crs:EPSG::4326,3,http://dd.eionet.europa.eu/vocabulary/uom/length/m,http://dd.eionet.europa.eu/vocabulary/aq/areaclassification/suburban,FR.LCSQA-INERIS.AQ/NET-FR074A
290,290,STA-FR10030,STA-FR10030,FR.LCSQA-INERIS.AQ,2,FR10030,Boulogne Diderot,BOULOGNE-SUR-MER,FR10030,2016-01-20T00:00:00+01:00,,50.71703,1.605913,urn:ogc:def:crs:EPSG::4326,7,http://dd.eionet.europa.eu/vocabulary/uom/length/m,http://dd.eionet.europa.eu/vocabulary/aq/areaclassification/urban,FR.LCSQA-INERIS.AQ/NET-FR074A
291,291,STA-FR10031,STA-FR10031,FR.LCSQA-INERIS.AQ,1,FR10031,Boulogne Centre,BOULOGNE-SUR-MER,FR10031,2001-07-01T00:00:00+01:00,2016-03-10T00:00:00+01:00,50.71247,1.6081,urn:ogc:def:crs:EPSG::4326,5,http://dd.eionet.europa.eu/vocabulary/uom/length/m,http://dd.eionet.europa.eu/vocabulary/aq/areaclassification/urban,FR.LCSQA-INERIS.AQ/NET-FR074A
292,292,STA-FR10032,STA-FR10032,FR.LCSQA-INERIS.AQ,2,FR10032,Outreau,OUTREAU,FR10032,2001-07-04T00:00:00+01:00,,50.69435,1.57657,urn:ogc:def:crs:EPSG::4326,58,http://dd.eionet.europa.eu/vocabulary/uom/length/m,http://dd.eionet.europa.eu/vocabulary/aq/areaclassification/suburban,FR.LCSQA-INERIS.AQ/NET-FR074A
293,293,STA-FR10034,STA-FR10034,FR.LCSQA-INERIS.AQ,2,FR10034,Grande-synthe,GRANDE-SYNTHE,FR10034,2009-07-23T00:00:00+01:00,,51.02446,2.30215,urn:ogc:def:crs:EPSG::4326,3,http://dd.eionet.europa.eu/vocabulary/uom/length/m,http://dd.eionet.europa.eu/vocabulary/aq/areaclassification/urban,FR.LCSQA-INERIS.AQ/NET-FR074A
294,294,STA-FR10041,STA-FR10041,FR.LCSQA-INERIS.AQ,2,FR10041,St Omer Ribot,SAINT-OMER,FR10041,2006-03-06T00:00:00+01:00,,50.74823,2.25978,urn:ogc:def:crs:EPSG::4326,12,http://dd.eionet.europa.eu/vocabulary/uom/length/m,http://dd.eionet.europa.eu/vocabulary/aq/areaclassification/urban,FR.LCSQA-INERIS.AQ/NET-FR074A
295,295,STA-FR10132,STA-FR10132,FR.LCSQA-INERIS.AQ,2,FR10132,Campagne les B.,CAMPAGNE-LÈS-BOULONNAIS,FR10132,2011-06-01T00:00:00+01:00,,50.61048,1.99145,urn:ogc:def:crs:EPSG::4326,170,http://dd.eionet.europa.eu/vocabulary/uom/length/m,http://dd.eionet.europa.eu/vocabulary/aq/areaclassification/rural-regional,FR.LCSQA-INERIS.AQ/NET-FR074A
296,296,STA-FR11007,STA-FR11007,FR.LCSQA-INERIS.AQ,2,FR11007,Lille Leeds,LILLE,FR11007,2016-06-15T00:00:00+01:00,,50.640793,3.074772,urn:ogc:def:crs:EPSG::4326,20,http://dd.eionet.europa.eu/vocabulary/uom/length/m,http://dd.eionet.europa.eu/vocabulary/aq/areaclassification/urban,FR.LCSQA-INERIS.AQ/NET-FR074A
297,297,STA-FR11016,STA-FR11016,FR.LCSQA-INERIS.AQ,2,FR11016,Marcq CTM,MARCQ-EN-BARŒUL,FR11016,1993-08-05T00:00:00+01:00,,50.67003,3.07656,urn:ogc:def:crs:EPSG::4326,19,http://dd.eionet.europa.eu/vocabulary/uom/length/m,http://dd.eionet.europa.eu/vocabulary/aq/areaclassification/urban,FR.LCSQA-INERIS.AQ/NET-FR074A
298,298,STA-FR11022,STA-FR11022,FR.LCSQA-INERIS.AQ,1,FR11022,Armentieres Centre,ARMENTIERES,FR11022,2004-01-01T00:00:00+01:00,2016-12-20T00:00:00+01:00,50.68719,2.88004,urn:ogc:def:crs:EPSG::4326,19,http://dd.eionet.europa.eu/vocabulary/uom/length/m,http://dd.eionet.europa.eu/vocabulary/aq/areaclassification/urban,FR.LCSQA-INERIS.AQ/NET-FR074A
299,299,STA-FR11025,STA-FR11025,FR.LCSQA-INERIS.AQ,3,FR11025,Lille Fives,LILLE,FR11025,1995-03-01T00:00:00+01:00,2022-01-05T00:00:00+01:00,50.62805,3.09031,urn:ogc:def:crs:EPSG::4326,25,http://dd.eionet.europa.eu/vocabulary/uom/length/m,http://dd.eionet.europa.eu/vocabulary/aq/areaclassification/urban,FR.LCSQA-INERIS.AQ/NET-FR074A
300,300,STA-FR11026,STA-FR11026,FR.LCSQA-INERIS.AQ,2,FR11026,Halluin stade,HALLUIN,FR11026,2003-01-01T00:00:00+01:00,,50.775482,3.12568,urn:ogc:def:crs:EPSG::4326,24,http://dd.eionet.europa.eu/vocabulary/uom/length/m,http://dd.eionet.europa.eu/vocabulary/aq/areaclassification/suburban,FR.LCSQA-INERIS.AQ/NET-FR074A
301,301,STA-FR11027,STA-FR11027,FR.LCSQA-INERIS.AQ,2,FR11027,Tourcoing Centre,TOURCOING,FR11027,1997-10-21T00:00:00+01:00,2018-12-18T00:00:00+01:00,50.7242,3.15906,urn:ogc:def:crs:EPSG::4326,42,http://dd.eionet.europa.eu/vocabulary/uom/length/m,http://dd.eionet.europa.eu/vocabulary/aq/areaclassification/urban,FR.LCSQA-INERIS.AQ/NET-FR074A
